ID,Name,Address,City,County,State,Zip,FIPS,CBSA,CBSAType,Longitude,Latitude
100654,Alabama A & M University,4900 Meridian Street,Normal,Madison County,AL,35762,1089,26620,1,-86.568502,34.783368
100663,University of Alabama at Birmingham,Administration Bldg Suite 1070,Birmingham,Jefferson County,AL,35294-0110,1073,13820,1,-86.799345,33.505697
100690,Amridge University,1200 Taylor Rd,Montgomery,Montgomery County,AL,36117-3553,1101,33860,1,-86.17401,32.362609
100706,University of Alabama in Huntsville,301 Sparkman Dr,Huntsville,Madison County,AL,35899,1089,26620,1,-86.640449,34.724557
100724,Alabama State University,915 S Jackson Street,Montgomery,Montgomery County,AL,36104-0271,1101,33860,1,-86.295677,32.364317
100733,University of Alabama System Office,500 University Blvd. East,Tuscaloosa,Tuscaloosa County,AL,35401,1125,46220,1,-87.529594,33.207015
100751,The University of Alabama,739 University Blvd,Tuscaloosa,Tuscaloosa County,AL,35487-0100,1125,46220,1,-87.545978,33.211875
100760,Central Alabama Community College,1675 Cherokee Rd,Alexander City,Tallapoosa County,AL,35010,1123,10760,2,-85.945266,32.92478
100812,Athens State University,300 N Beaty St,Athens,Limestone County,AL,35611,1083,26620,1,-86.964698,34.806793
100830,Auburn University at Montgomery,7440 East Drive,Montgomery,Montgomery County,AL,36117-3596,1101,33860,1,-86.177544,32.36736
100858,Auburn University, ,Auburn,Lee County,AL,36849,1081,12220,1,-85.488258,32.599378
100937,Birmingham-Southern College,900 Arkadelphia Road,Birmingham,Jefferson County,AL,35254,1073,13820,1,-86.850552,33.513774
101028,Chattahoochee Valley Community College,2602 College Drive,Phenix City,Russell County,AL,36869,1113,17980,1,-85.031485,32.42391
101116,South University-Montgomery,5355 Vaughn Rd,Montgomery,Montgomery County,AL,36116,1101,33860,1,-86.216488,32.342684
101143,Enterprise State Community College,600 Plaza Drive,Enterprise,Coffee County,AL,36330-1300,1031,21460,2,-85.836956,31.297496
101161,Coastal Alabama Community College,1900 U S Highway 31 South,Bay Minette,Baldwin County,AL,36507-2698,1003,19300,1,-87.778193,30.851343
101189,Faulkner University,5345 Atlanta Hwy,Montgomery,Montgomery County,AL,36109-3390,1101,33860,1,-86.21641,32.384181
101240,Gadsden State Community College,1001 George Wallace Dr,Gadsden,Etowah County,AL,35903,1055,23460,1,-85.991438,33.994001
101277,New Beginning College of Cosmetology,421 Martling Road,Albertville,Marshall County,AL,35951,1095,10700,2,-86.196931,34.27871
101286,George C Wallace Community College-Dothan,1141 Wallace Drive,Dothan,Dale County,AL,36303-9234,1045,37120,2,-85.465836,31.315274
101295,George C Wallace State Community College-Hanceville,801 Main St NW,Hanceville,Cullman County,AL,35077-2000,1043,18980,2,-86.781935,34.072439
101301,George C Wallace State Community College-Selma,3000 Earl Goodwin Parkway,Selma,Dallas County,AL,36703-2808,1047,42820,2,-87.013294,32.445917
101365,Herzing University-Birmingham,280 West Valley Ave,Birmingham,Jefferson County,AL,35209,1073,13820,1,-86.832465,33.468466
101435,Huntingdon College,1500 East Fairview Avenue,Montgomery,Montgomery County,AL,36106-2148,1101,33860,1,-86.284366,32.351034
101453,Heritage Christian University,3625 Helton Dr,Florence,Lauderdale County,AL,35630-9977,1077,22520,1,-87.663051,34.856153
101462,J. F. Drake State Community and Technical College,3421 Meridian St N,Huntsville,Madison County,AL,35811,1089,26620,1,-86.572885,34.771858
101471,J F Ingram State Technical College,5375 Ingram Rd,Deatsville,Elmore County,AL,36022,1051,33860,1,-86.392369,32.582312
101480,Jacksonville State University,700 Pelham Road North,Jacksonville,Calhoun County,AL,36265,1015,11500,1,-85.765321,33.822938
101505,Jefferson State Community College,2601 Carson Rd,Birmingham,Jefferson County,AL,35215-3098,1073,13820,1,-86.707233,33.652535
101514,John C Calhoun State Community College,6250 U S Highway 31 N,Tanner,Limestone County,AL,35671,1083,26620,1,-86.949674,34.645844
101541,Judson College,302 Bibb St,Marion,Perry County,AL,36756,1105,-2,-2,-87.315206,32.629253
101569,Lawson State Community College,3060 Wilson Rd SW,Birmingham,Jefferson County,AL,35221-1717,1073,13820,1,-86.888844,33.450814
101587,University of West Alabama,Station One,Livingston,Sumter County,AL,35470,1119,-2,-2,-88.186329,32.588132
101602,Lurleen B Wallace Community College,1000 Dannelly Blvd.,Andalusia,Covington County,AL,36420-1418,1039,-2,-2,-86.452262,31.322947
101648,Marion Military Institute,1101 Washington St,Marion,Perry County,AL,36756-3207,1105,-2,-2,-87.322041,32.623734
101675,Miles College,5500 Myron Massey Blvd,Fairfield,Jefferson County,AL,35064-2621,1073,13820,1,-86.908751,33.482442
101693,University of Mobile,5735 College Parkway Drive,Mobile,Mobile County,AL,36613-2842,1097,33660,1,-88.128934,30.793247
101709,University of Montevallo,Station 6001,Montevallo,Shelby County,AL,35115-6000,1117,13820,1,-86.865099,33.10625
101736,Northwest-Shoals Community College,800 George Wallace Blvd,Muscle Shoals,Colbert County,AL,35661,1033,22520,1,-87.678089,34.739788
101879,University of North Alabama,One Harrison Plaza,Florence,Lauderdale County,AL,35632-0001,1077,22520,1,-87.681361,34.806738
101897,Northeast Alabama Community College,138  Highway 35,Rainsville,Jackson County,AL,35986,1071,42460,2,-85.911664,34.545471
101912,Oakwood University,7000 Adventist Blvd NW,Huntsville,Madison County,AL,35896,1089,26620,1,-86.652705,34.756344
101994,Reid State Technical College,100 and Hwy 83,Evergreen,Conecuh County,AL,36401,1035,-2,-2,-86.964797,31.460265
102030,Bishop State Community College,351 North Broad Street,Mobile,Mobile County,AL,36603-5898,1097,33660,1,-88.056982,30.693972
102049,Samford University,800 Lakeshore Drive,Birmingham,Jefferson County,AL,35229-2240,1073,13820,1,-86.791799,33.464128
102058,Selma University,"1501 Lapsley St, Dinkins Hall",Selma,Dallas County,AL,36701,1047,42820,2,-87.032392,32.420387
102067,Shelton State Community College,9500 Old Greensboro Rd,Tuscaloosa,Tuscaloosa County,AL,35405-8522,1125,46220,1,-87.56148,33.120531
102076,Snead State Community College,102 Elder Street,Boaz,Marshall County,AL,35957-0734,1095,10700,2,-86.169897,34.201495
102094,University of South Alabama,307 N University Blvd,Mobile,Mobile County,AL,36688-0002,1097,33660,1,-88.178711,30.696033
102234,Spring Hill College,4000 Dauphin St,Mobile,Mobile County,AL,36608-1791,1097,33660,1,-88.138199,30.694751
102270,Stillman College,3601 Stillman Boulevard,Tuscaloosa,Tuscaloosa County,AL,35401,1125,46220,1,-87.585278,33.200006
102298,Talladega College,627 West Battle Street,Talladega,Talladega County,AL,35160,1121,45180,2,-86.112704,33.433472
102313,H Councill Trenholm State Community College,1225 Air Base Blvd,Montgomery,Montgomery County,AL,36108-3199,1101,33860,1,-86.343057,32.350109
102368,Troy University,University Avenue,Troy,Pike County,AL,36082-0001,1109,45980,2,-85.957094,31.800672
102377,Tuskegee University,"Kresge Center, 3rd Floor",Tuskegee,Macon County,AL,36088-1920,1087,-2,-2,-85.708492,32.4309
102395,United States Sports Academy,One Academy Drive,Daphne,Baldwin County,AL,36526-7055,1003,19300,1,-87.91163,30.639329
102429,Bevill State Community College,1411 Indiana Avenue,Jasper,Walker County,AL,35501,1127,27530,2,-87.266406,33.836929
102553,University of Alaska Anchorage,3211 Providence Drive,Anchorage,Anchorage Municipality,AK,99508,2020,11260,1,-149.82619,61.190163
102580,Alaska Bible College,248 E Elmwood Ave,Palmer,Matanuska-Susitna Borough,AK,99645,2170,11260,1,-149.111972,61.598553
102614,University of Alaska Fairbanks,1731 South Chandalar Drive,Fairbanks,Fairbanks North Star Borough,AK,99775,2090,21820,1,-147.823146,64.85756
102632,University of Alaska Southeast,11066 Auke Lake Way,Juneau,Juneau City and Borough,AK,99801-8697,2110,27940,2,-134.638255,58.384846
102669,Alaska Pacific University,4101 University Dr,Anchorage,Anchorage Municipality,AK,99508,2020,11260,1,-149.804168,61.190968
102711,Alaska Vocational Technical Center,PO Box 889,Seward,Kenai Peninsula Borough,AK,99664-0889,2122,-2,-2,-149.444487,60.110626
102845,Charter College,"17200 S.E. Mill Plain Boulevard, Suite 100",Vancouver,Clark County,WA,98683-7575,53011,38900,1,-122.494766,45.617798
103501,Alaska Career College,1415 E Tudor Road,Anchorage,Anchorage Municipality,AK,99507-1033,2020,11260,1,-149.856954,61.181443
103529,University of Alaska System of Higher Education,"910 Yukon Drive, Suite 202 Butrovich Building",Fairbanks,Fairbanks North Star Borough,AK,99775-5000,2090,21820,1,-147.848969,64.857516
103741,Empire Beauty School-Tucson,3030 E Speedway Blvd,Tucson,Pima County,AZ,85716,4019,46060,1,-110.927187,32.235657
103893,Carrington College-Phoenix North,8503 N. 27th Ave.,Phoenix,Maricopa County,AZ,85051-4063,4013,38060,1,-112.116105,33.561689
103909,Carrington College-Mesa,"1001 W. Southern Ave., Ste. 130",Mesa,Maricopa County,AZ,85210,4013,38060,1,-111.853218,33.39248
103927,Carrington College-Tucson,"201 N. Bonita Ave., Ste. 101",Tucson,Pima County,AZ,85745,4019,46060,1,-110.983056,32.224391
103945,CollegeAmerica-Flagstaff,399 Malpais,Flagstaff,Coconino County,AZ,86001,4005,22380,1,-111.657673,35.194495
103954,Arizona Academy of Beauty-East,5631 E Speedway Blvd,Tucson,Pima County,AZ,85712,4019,46060,1,-110.872305,32.237253
103963,Platt College-Arizona Automotive Institute Arizona,6829 N 46th Ave,Glendale,Maricopa County,AZ,85301-3579,4013,38060,1,-112.157344,33.537249
104090,Brookline College-Phoenix,"2445 W. Dunlap Ave., Ste. 100",Phoenix,Maricopa County,AZ,85021,4013,38060,1,-112.112473,33.566102
104151,Arizona State University-Tempe,University Drive and Mill Avenue,Tempe,Maricopa County,AZ,85287,4013,38060,1,-111.934383,33.417721
104160,Arizona Western College,2020 S. Avenue 8E,Yuma,Yuma County,AZ,85365-8834,4027,49740,1,-114.495968,32.689306
104179,University of Arizona,1401 E University,Tucson,Pima County,AZ,85721-0066,4019,46060,1,-110.950815,32.232672
104188,Southwest University of Visual Arts-Tucson,2525 N Country Club Rd,Tucson,Pima County,AZ,85716,4019,46060,1,-110.927265,32.252879
104346,Central Arizona College,8470 N Overfield Rd,Coolidge,Pinal County,AZ,85128-9030,4021,38060,1,-111.652501,32.957092
104391,Charles of Italy Beauty College,"1987 McCulloch Blvd, Suite 205",Lake Havasu City,Mohave County,AZ,86403,4015,29420,1,-114.332686,34.477485
104425,Cochise County Community College District,901 N Colombo Ave,Sierra Vista,Cochise County,AZ,85635-2317,4003,43420,1,-110.246946,31.564597
104434,Empire Beauty School-Flagstaff,1790 E Rte 66,Flagstaff,Coconino County,AZ,86004,4005,22380,1,-111.625936,35.197151
104443,Empire Beauty School-Chandler,2978 N Alma School Rd #1-3,Chandler,Maricopa County,AZ,85224,4013,38060,1,-111.860423,33.347586
104504,Cortiva Institute-Tucson,"6390 E. Broadway, Suite 100",Tucson,Pima County,AZ,85710,4019,46060,1,-110.856785,32.21901
104568,Avalon School of Cosmetology-Mesa,2111 S Alma School Rd Ste 21,Mesa,Maricopa County,AZ,85210,4013,38060,1,-111.858305,33.376583
104577,Eastern Arizona College,615 N. Stadium Ave.,Thatcher,Graham County,AZ,85552-0769,4009,40940,2,-109.76234,32.843664
104586,Embry-Riddle Aeronautical University-Prescott,3700 Willow Creek Road,Prescott,Yavapai County,AZ,86301-3720,4025,39150,1,-112.449741,34.616766
104665,School of Architecture at Taliesin,12621 N. Frank Lloyd Wright Blvd,Scottsdale,Maricopa County,AZ,85259,4013,38060,1,-111.845411,33.607097
104708,Glendale Community College,6000 W Olive Ave,Glendale,Maricopa County,AZ,85302,4013,38060,1,-112.190735,33.570226
104717,Grand Canyon University,3300 W Camelback Rd,Phoenix,Maricopa County,AZ,85017,4013,38060,1,-112.129929,33.513231
105136,Maricopa Community College System Office,2411 W 14th St,Tempe,Maricopa County,AZ,85281-6942,4013,38060,1,-111.975786,33.412915
105145,GateWay Community College,108 N. 40th Street,Phoenix,Maricopa County,AZ,85034,4013,38060,1,-111.997077,33.449686
105154,Mesa Community College,1833 W Southern Ave,Mesa,Maricopa County,AZ,85202,4013,38060,1,-111.871255,33.390323
105206,Mohave Community College,1971 Jagerson Ave,Kingman,Mohave County,AZ,86409-1238,4015,29420,1,-114.029838,35.270996
105215,Universal Technical Institute of Arizona Inc-Motorcycle Mechanics Institute Division,2844 W Deer Valley Rd,Phoenix,Maricopa County,AZ,85027,4013,38060,1,-112.121336,33.684428
105297,Dine College,"Route 12, One Circle Drive",Tsaile,Apache County,AZ,86556,4001,-2,-2,-109.21684,36.293328
105330,Northern Arizona University,"1900 S Knoles Dr, Babbitt Administrative Center, Room 200",Flagstaff,Coconino County,AZ,86011-4092,4005,22380,1,-111.653724,35.188449
105349,Northland Pioneer College,2251 E. Navajo Blvd.,Holbrook,Navajo County,AZ,86025-0610,4017,43320,2,-110.142199,34.93031
105367,Ottawa University-Phoenix,9414 North 25th Avenue,Phoenix,Maricopa County,AZ,85021,4013,38060,1,-112.113001,33.572173
105428,Phoenix College,1202 W Thomas Rd,Phoenix,Maricopa County,AZ,85013,4013,38060,1,-112.088293,33.481361
105482,Cortiva Institute-Scottsdale,8010 East McDowell Road #214,Scottsdale,Maricopa County,AZ,85257,4013,38060,1,-111.90807,33.466153
105525,Pima Community College,4905C East  Broadway Blvd.,Tucson,Pima County,AZ,85709-1275,4019,46060,1,-110.886659,32.222125
105534,Pima Medical Institute-Tucson,"2121 N Craycroft Road, Bldg 1",Tucson,Pima County,AZ,85712,4019,46060,1,-110.878783,32.248067
105543,Pima Medical Institute-Albuquerque,4400 Cutler Avenue NE,Albuquerque,Bernalillo County,NM,87110,35001,10740,1,-106.59488,35.104855
105589,Prescott College,220 Grove Ave,Prescott,Yavapai County,AZ,86301,4025,39150,1,-112.477185,34.5452
105659,Refrigeration School Inc,4210 E Washington Street,Phoenix,Maricopa County,AZ,85034-1816,4013,38060,1,-111.989357,33.448692
105668,Rio Salado College,2323 W 14th St,Tempe,Maricopa County,AZ,85281,4013,38060,1,-111.97417,33.413309
105677,Roberto-Venn School of Luthiery,1012 NW Grand Ave,Phoenix,Maricopa County,AZ,85007,4013,38060,1,-112.086161,33.45489
105747,Scottsdale Community College,9000 E Chaparral Rd,Scottsdale,Maricopa County,AZ,85256,4013,38060,1,-111.885186,33.51135
105792,South Mountain Community College,7050 S 24th St,Phoenix,Maricopa County,AZ,85042,4013,38060,1,-112.032635,33.382406
105899,Arizona Christian University,1 W. Firestorm Way,Glendale,Maricopa County,AZ,85306-3216,4013,38060,1,-112.181776,33.622952
106041,Universal Technical Institute of Arizona Inc,10695 West Pierce Street,Avondale,Maricopa County,AZ,85323,4013,38060,1,-112.288123,33.453005
106111,Empire Beauty School-NW Phoenix,2727 W. Glendale Ave. #200,Phoenix,Maricopa County,AZ,85051,4013,38060,1,-112.118168,33.538093
106148,Yavapai College,1100 E Sheldon St,Prescott,Yavapai County,AZ,86301,4025,39150,1,-112.453395,34.547495
106245,University of Arkansas at Little Rock,2801 S University Ave,Little Rock,Pulaski County,AR,72204,5119,30780,1,-92.339778,34.723254
106263,University of Arkansas for Medical Sciences,4301 W Markham,Little Rock,Pulaski County,AR,72205-7199,5119,30780,1,-92.320046,34.749048
106306,Arkansas Baptist College,1600 Dr. Martin Luther King Jr. Drive,Little Rock,Pulaski County,AR,72202-6068,5119,30780,1,-92.290555,34.734751
106315,Arkansas Beauty School-Little Rock,8521 Geyer Springs Road Unit 30,Little Rock,Pulaski County,AR,72209,5119,30780,1,-92.343366,34.672171
106324,Arkansas Beauty College,109 N Commerce St,Russellville,Pope County,AR,72801,5115,40780,2,-93.135369,35.27902
106342,Lyon College,2300 Highland Road,Batesville,Independence County,AR,72501,5063,12900,2,-91.625354,35.777619
106351,Arkansas College of Barbering and Hair Design,200 E Washington Ave,North Little Rock,Pulaski County,AR,72114,5119,30780,1,-92.266429,34.753843
106360,Arthur's Beauty College Inc-Fort Smith,2000 North B St,Fort Smith,Sebastian County,AR,72901-3342,5131,22900,1,-94.410967,35.379955
106397,University of Arkansas,Administration Bldg 425,Fayetteville,Washington County,AR,72701,5143,22220,1,-94.176981,36.070009
106412,University of Arkansas at Pine Bluff,1200 N University Mail Slot 4789,Pine Bluff,Jefferson County,AR,71601,5069,38220,1,-92.018683,34.244031
106449,Arkansas State University-Beebe,1000 Iowa Street,Beebe,White County,AR,72012-1000,5145,42620,2,-91.895351,35.074176
106458,Arkansas State University-Main Campus,2105 E. Aggie Road,Jonesboro,Craighead County,AR,72401,5031,27860,1,-90.679988,35.842388
106467,Arkansas Tech University,Administration Bldg 200; 1509 N Boulder Ave,Russellville,Pope County,AR,72801-2222,5115,40780,2,-93.13562,35.293237
106485,University of Arkansas at Monticello,Highway 425 South,Monticello,Drew County,AR,71656,5043,-2,-2,-91.811153,33.590909
106494,Arthur's Beauty College Inc-Jacksonville,2600 John Harden Dr,Jacksonville,Pulaski County,AR,72076,5119,30780,1,-92.102579,34.891572
106546,Baptist Health College Little Rock,11900 COLONEL GLENN RD STE 1000,Little Rock,Pulaski County,AR,72210-2827,5119,30780,1,-92.40692,34.713115
106625,Black River Technical College,1410 Hwy 304 East,Pocahontas,Randolph County,AR,72455,5121,-2,-2,-90.951033,36.239793
106704,University of Central Arkansas,201 Donaghey Ave,Conway,Faulkner County,AR,72035-0001,5045,30780,1,-92.457672,35.077945
106713,Central Baptist College,1501 College Avenue,Conway,Faulkner County,AR,72034,5045,30780,1,-92.445021,35.083838
106795,Cossatot Community College of the University of Arkansas,183 College Drive,De Queen,Sevier County,AR,71832,5133,-2,-2,-94.3673,34.043389
106810,Crowley's Ridge College,100 College Dr,Paragould,Greene County,AR,72450,5055,37500,2,-90.584395,36.064845
106829,Crowley's Ridge Technical Institute,1620 Newcastle Road,Forrest City,St. Francis County,AR,72335-0925,5123,22620,2,-90.767321,35.039816
106883,East Arkansas Community College,1700 Newcastle Rd,Forrest City,St. Francis County,AR,72335-2204,5123,22620,2,-90.767726,35.041655
106892,Eastern College of Health Vocations-Little Rock,200 South University Avenue,Little Rock,Pulaski County,AR,72205,5119,30780,1,-92.341891,34.75128
106908,Imagine-Paul Mitchell Partner School,4201 E McCain Blvd,North Little Rock,Pulaski County,AR,72117,5119,30780,1,-92.222202,34.789913
106980,National Park College,101 College Dr,Hot Springs,Garland County,AR,71913,5051,26300,1,-93.119248,34.512687
106999,University of Arkansas Community College-Batesville,2005 White Drive,Batesville,Independence County,AR,72503-3350,5063,12900,2,-91.615852,35.792923
107044,Harding University,915 E. Market Ave.,Searcy,White County,AR,72149-5615,5145,42620,2,-91.726143,35.247386
107071,Henderson State University,1100 Henderson Street,Arkadelphia,Clark County,AR,71999-0001,5019,11660,2,-93.059703,34.128155
107080,Hendrix College,1600 Washington Ave,Conway,Faulkner County,AR,72032-3080,5045,30780,1,-92.443256,35.101565
107099,Hot Springs Beauty College,100 Cones Rd,Hot Springs,Garland County,AR,71901,5051,26300,1,-93.037277,34.496057
107123,Jefferson Regional Medical Center School of Nursing,1600 West 40th Avenue,Pine Bluff,Jefferson County,AR,71603,5069,38220,1,-92.018045,34.187831
107141,John Brown University,2000 W University St,Siloam Springs,Benton County,AR,72761,5007,22220,1,-94.560283,36.189812
107220,Career Academy of Hair Design,346 E. Robinson Ave,Springdale,Washington County,AR,72764-7128,5143,22220,1,-94.12947,36.167605
107293,Academy of Salon and Spa,311 S 16th St,Fort Smith,Sebastian County,AR,72901,5131,22900,1,-94.41616,35.38097
107318,Arkansas State University Mid-South,2000 W.  Broadway,West Memphis,Crittenden County,AR,72301-3829,5035,32820,1,-90.22285,35.145736
107327,Arkansas Northeastern College,2501 S Division,Blytheville,Mississippi County,AR,72316-1109,5093,14180,2,-89.921005,35.898597
107442,New Tyler Barber College Inc,1221 E 7th St,North Little Rock,Pulaski County,AR,72114-4973,5119,30780,1,-92.254171,34.760085
107460,North Arkansas College,1515 Pioneer Dr,Harrison,Boone County,AR,72601-5508,5009,25460,2,-93.08844,36.219909
107488,Northwest Technical Institute,709 S Old Missouri Rd,Springdale,Washington County,AR,72764,5143,22220,1,-94.115346,36.178032
107512,Ouachita Baptist University,410 Ouachita St,Arkadelphia,Clark County,AR,71998-0001,5019,11660,2,-93.052471,34.126093
107521,Arkansas State University Three Rivers,One College Circle,Malvern,Hot Spring County,AR,72104-0816,5059,31680,2,-92.821416,34.378745
107549,Ozarka College,218 College Dr,Melbourne,Izard County,AR,72556-0010,5065,-2,-2,-91.896355,36.053031
107558,University of the Ozarks,415 N College Ave,Clarksville,Johnson County,AR,72830,5071,-2,-2,-93.467221,35.476278
107585,University of Arkansas Community College-Morrilton,1537 University Blvd.,Morrilton,Conway County,AR,72110,5029,-2,-2,-92.728507,35.172136
107600,Philander Smith College,900 W. Daisy Bates Drive,Little Rock,Pulaski County,AR,72202-3799,5119,30780,1,-92.283015,34.737131
107619,Phillips Community College of the University of Arkansas,1000 Campus Drive,Helena,Phillips County,AR,72342-0785,5107,25760,2,-90.616884,34.546155
107637,Southeast Arkansas College,1900 S Hazel Street,Pine Bluff,Jefferson County,AR,71603,5069,38220,1,-92.025936,34.210309
107655,Professional Cosmetology Education Center,460 North Washington,El Dorado,Union County,AR,71730-4009,5139,20980,2,-92.664101,33.216032
107664,University of Arkansas-Pulaski Technical College,3000 W Scenic Dr,North Little Rock,Pulaski County,AR,72118-3347,5119,30780,1,-92.299184,34.782783
107725,University of Arkansas Hope-Texarkana,2500 S Main,Hope,Hempstead County,AR,71801,5057,26260,2,-93.596762,33.641665
107743,University of Arkansas Community College Rich Mountain,1100 College Dr,Mena,Polk County,AR,71953,5113,-2,-2,-94.219799,34.591449
107789,Paul Mitchell the School-Arkansas,4156 N Steele Blvd,Fayetteville,Washington County,AR,72703,5143,22220,1,-94.153892,36.126373
107831,Searcy Beauty College,1004 S Main St,Searcy,White County,AR,72143,5145,42620,2,-91.735135,35.239148
107840,Shorter College,604 Locust St,N Little Rock,Pulaski County,AR,72114,5119,30780,1,-92.261331,34.75933
107877,Williams Baptist University,60 W Fulbright Avenue,Walnut Ridge,Lawrence County,AR,72476,5075,-2,-2,-90.940277,36.125676
107974,South Arkansas Community College,300 S West Ave,El Dorado,Union County,AR,71731-7010,5139,20980,2,-92.666087,33.209446
107983,Southern Arkansas University Main Campus,100 E. University,Magnolia,Columbia County,AR,71753,5027,31620,2,-93.235922,33.291618
107992,Southern Arkansas University Tech,6415 Spellman Road,Camden,Calhoun County,AR,71701-1906,5013,15780,2,-92.721629,33.628367
108056,University of Arkansas System Office,2404 N University,Little Rock,Pulaski County,AR,72207-3608,5119,30780,1,-92.343714,34.775989
108065,Velvatex College of Beauty Culture,1520 Martin Luther King Dr,Little Rock,Pulaski County,AR,72202-5452,5119,30780,1,-92.289597,34.735685
108092,University of Arkansas-Fort Smith,5210 Grand Ave,Fort Smith,Sebastian County,AR,72913-3649,5131,22900,1,-94.373729,35.384184
108232,Academy of Art University,79 New Montgomery,San Francisco,San Francisco County,CA,94105,6075,41860,1,-122.400578,37.787943
108269,Academy of Chinese Culture and Health Sciences,"1600 Broadway, Ste. 200",Oakland,Alameda County,CA,94612,6001,41860,1,-122.269839,37.805972
108348,The Academy of Radio and TV Broadcasting,16052 Beach Blvd St 263n,Huntington Beach,Orange County,CA,92647,6059,31080,1,-117.987762,33.729535
108649,Avalon School of Cosmetology-Alameda,2318 Central Avenue,Alameda,Alameda County,CA,94501,6001,41860,1,-122.243566,37.764203
108667,College of Alameda,555 Ralph Appezzato Memorial Pky,Alameda,Alameda County,CA,94501,6001,41860,1,-122.279303,37.781017
108807,Allan Hancock College,800 South College Drive,Santa Maria,Santa Barbara County,CA,93454-6399,6083,42200,1,-120.421144,34.943716
108852,American Academy of Dramatic Arts-Los Angeles,1336 North La Brea Avenue,Los Angeles,Los Angeles County,CA,90028,6037,31080,1,-118.343701,34.095378
108861,American Baptist Seminary of the West,2606 Dwight Way,Berkeley,Alameda County,CA,94704-3029,6001,41860,1,-122.256149,37.865252
108870,American Film Institute Conservatory,2021 N Western Ave,Los Angeles,Los Angeles County,CA,90027-1625,6037,31080,1,-118.310018,34.10767
108977,American Beauty College,646 S. Sunset Ave,West Covina,Los Angeles County,CA,91790,6037,31080,1,-117.936959,34.069367
109040,American Career College-Los Angeles,4021 Rosewood Avenue,Los Angeles,Los Angeles County,CA,90004,6037,31080,1,-118.292481,34.079323
109086,American Conservatory Theater,30 Grant Ave,San Francisco,San Francisco County,CA,94108-5834,6075,41860,1,-122.40475,37.787343
109208,American River College,4700 College Oak Dr,Sacramento,Sacramento County,CA,95841-4286,6067,40900,1,-121.349672,38.65085
109350,Antelope Valley College,3041 West  Ave K,Lancaster,Los Angeles County,CA,93536-5426,6037,31080,1,-118.186166,34.676207
109651,Art Center College of Design,1700 Lida St,Pasadena,Los Angeles County,CA,91103,6037,31080,1,-118.185102,34.169031
109721,Associated Technical College-Los Angeles,1670 Wilshire Blvd,Los Angeles,Los Angeles County,CA,90017-1604,6037,31080,1,-118.272364,34.056102
109730,Associated Technical College-San Diego,707 Broadway-Ste 300,San Diego,San Diego County,CA,92101,6073,41740,1,-117.157988,32.715375
109785,Azusa Pacific University,901 E Alosta,Azusa,Los Angeles County,CA,91702-7000,6037,31080,1,-117.888375,34.130047
109819,Bakersfield College,1801 Panorama Dr,Bakersfield,Kern County,CA,93305-1299,6029,12540,1,-118.973753,35.40911
109907,Barstow Community College,2700 Barstow Road,Barstow,San Bernardino County,CA,92311,6071,40140,1,-117.023412,34.870285
109934,Bellus Academy-Chula Vista,"970 Broadway, Suite 110",Chula Vista,San Diego County,CA,91911,6073,41740,1,-117.083738,32.614773
110060,Bethesda University,730 N. Euclid St,Anaheim,Orange County,CA,92801,6059,31080,1,-117.941323,33.842295
110097,Biola University,13800 Biola Ave,La Mirada,Los Angeles County,CA,90639-0001,6037,31080,1,-118.014374,33.906203
110194,Brownson Technical School,1110 Technology Cir Ste D,Anaheim,Orange County,CA,92805,6059,31080,1,-117.905774,33.819032
110219,Bryan University,350 W Washington St,Tempe,Maricopa County,AZ,85281,4013,38060,1,-111.944197,33.437779
110246,Butte College,3536 Butte Campus Drive,Oroville,Butte County,CA,95965-8399,6007,17020,1,-121.644831,39.649782
110316,California Institute of Integral Studies,1453 Mission Street,San Francisco,San Francisco County,CA,94103,6075,41860,1,-122.416102,37.774924
110334,Cabrillo College,6500 Soquel Dr,Aptos,Santa Cruz County,CA,95003,6087,42100,1,-121.924797,36.989448
110361,California Baptist University,8432 Magnolia Ave,Riverside,Riverside County,CA,92504-3297,6065,40140,1,-117.425619,33.929321
110370,California College of the Arts,1111 Eighth Street,San Francisco,San Francisco County,CA,94107-2247,6075,41860,1,-122.399451,37.767485
110398,University of California-Hastings College of Law,200 McAllister Street,San Francisco,San Francisco County,CA,94102-4978,6075,41860,1,-122.4157,37.781137
110404,California Institute of Technology,1200 E California Blvd,Pasadena,Los Angeles County,CA,91125,6037,31080,1,-118.125878,34.137349
110413,California Lutheran University,60 W Olsen Rd,Thousand Oaks,Ventura County,CA,91360-2787,6111,37100,1,-118.878924,34.224566
110422,California Polytechnic State University-San Luis Obispo,1 Grand Ave.,San Luis Obispo,San Luis Obispo County,CA,93407,6079,42020,1,-120.657311,35.299513
110468,Alliant International University-San Diego,10455 Pomerado Road,San Diego,San Diego County,CA,92131,6073,41740,1,-117.094398,32.897056
110486,California State University-Bakersfield,9001 Stockdale Hwy,Bakersfield,Kern County,CA,93311-1099,6029,12540,1,-119.104711,35.350005
110495,California State University-Stanislaus,One University Circle,Turlock,Stanislaus County,CA,95382-0299,6099,33700,1,-120.852511,37.52577
110501,California State University-Chancellors Office,"Institutional Research & Analyses 401 Golden Shore, 6th Floor",Long Beach,Los Angeles County,CA,90802-4210,6037,31080,1,-118.201255,33.764338
110510,California State University-San Bernardino,5500 University Parkway,San Bernardino,San Bernardino County,CA,92407-2393,6071,40140,1,-117.323801,34.182622
110529,California State Polytechnic University-Pomona,3801 West Temple Avenue,Pomona,Los Angeles County,CA,91768,6037,31080,1,-117.821476,34.057912
110538,California State University-Chico,First and Normal Sts,Chico,Butte County,CA,95929-0150,6007,17020,1,-121.844859,39.729712
110547,California State University-Dominguez Hills,1000 E Victoria St,Carson,Los Angeles County,CA,90747-0005,6037,31080,1,-118.255917,33.864766
110556,California State University-Fresno,5241 N Maple Ave,Fresno,Fresno County,CA,93740,6019,23420,1,-119.744569,36.811154
110565,California State University-Fullerton,800 N State College Blvd,Fullerton,Orange County,CA,92831-3599,6059,31080,1,-117.885446,33.881506
110574,California State University-East Bay,25800 Carlos Bee Blvd,Hayward,Alameda County,CA,94542,6001,41860,1,-122.054135,37.657694
110583,California State University-Long Beach,1250 Bellflower Blvd,Long Beach,Los Angeles County,CA,90840-0115,6037,31080,1,-118.11204,33.782818
110592,California State University-Los Angeles,5151 State University Dr,Los Angeles,Los Angeles County,CA,90032-8506,6037,31080,1,-118.168965,34.066927
110608,California State University-Northridge,18111 Nordhoff St,Northridge,Los Angeles County,CA,91330,6037,31080,1,-118.529319,34.240126
110617,California State University-Sacramento,6000 J St,Sacramento,Sacramento County,CA,95819-2694,6067,40900,1,-121.423549,38.559415
110635,University of California-Berkeley,200 California Hall,Berkeley,Alameda County,CA,94720,6001,41860,1,-122.260463,37.871918
110644,University of California-Davis,One Shields Avenue,Davis,Yolo County,CA,95616-8678,6113,40900,1,-121.749567,38.539667
110653,University of California-Irvine,501 Aldrich Hall,Irvine,Orange County,CA,92697,6059,31080,1,-117.841248,33.648434
110662,University of California-Los Angeles,405 Hilgard Ave,Los Angeles,Los Angeles County,CA,90095-1405,6037,31080,1,-118.443901,34.068892
110671,University of California-Riverside,900 University Ave,Riverside,Riverside County,CA,92521,6065,40140,1,-117.32741,33.97246
110680,University of California-San Diego,9500 Gilman Dr,La Jolla,San Diego County,CA,92093,6073,41740,1,-117.235866,32.877749
110699,University of California-San Francisco,500 Parnassus Ave,San Francisco,San Francisco County,CA,94143-0244,6075,41860,1,-122.458489,37.763737
110705,University of California-Santa Barbara,5221 Cheadle Hall,Santa Barbara,Santa Barbara County,CA,93106,6083,42200,1,-119.846426,34.416297
110714,University of California-Santa Cruz,1156 High St,Santa Cruz,Santa Cruz County,CA,95064-1011,6087,42100,1,-122.058801,36.995584
110778,Sofia University,1069 East Meadow Cr,Palo Alto,Santa Clara County,CA,94303,6085,41940,1,-122.10866,37.430325
110875,California Beauty School,1115 15th St,Modesto,Stanislaus County,CA,95354,6099,33700,1,-120.99689,37.645217
110918,California Christian College,5364 E. Belmont Avenue,Fresno,Fresno County,CA,93727,6019,23420,1,-119.711123,36.749366
111045,California Graduate School of Theology,"12761 Euclid St.,",Garden Grove,Orange County,CA,92840-1340,6059,31080,1,-117.936119,33.774619
111054,California Hair Design Academy,"8011 University Avenue, Suite A-2",La Mesa,San Diego County,CA,91942-5055,6073,41740,1,-117.024261,32.765221
111081,California Institute of the Arts,24700 W McBean Pky,Valencia,Los Angeles County,CA,91355-2397,6037,31080,1,-118.566837,34.39327
111188,California State University Maritime Academy,200 Maritime Academy Dr,Vallejo,Solano County,CA,94590-8181,6095,46700,1,-122.231551,38.069061
111391,California Western School of Law,225 Cedar St,San Diego,San Diego County,CA,92101-3046,6073,41740,1,-117.162416,32.722192
111434,Canada College,4200 Farm Hill Blvd.,Redwood City,San Mateo County,CA,94061-1099,6081,41860,1,-122.265398,37.44877
111461,College of the Canyons,26455 Rockwell Canyon Rd,Santa Clarita,Los Angeles County,CA,91355-1899,6037,31080,1,-118.568698,34.403993
111513,Career Academy of Beauty,12471 Valley View,Garden Grove,Orange County,CA,92845,6059,31080,1,-118.031697,33.781018
111638,Casa Loma College-Van Nuys,6725 Kester Ave,Van Nuys,Los Angeles County,CA,91405,6037,31080,1,-118.457781,34.192829
111708,CET-San Diego,4153 Market Street,San Diego,San Diego County,CA,92102,6073,41740,1,-117.105328,32.711302
111717,CET-San Jose,701 Vine St,San Jose,Santa Clara County,CA,95110,6085,41940,1,-121.88698,37.322723
111726,CET-El Centro,294 S 3rd St,El Centro,Imperial County,CA,92243,6025,20940,1,-115.549079,32.790908
111744,CET-Colton,1099 N. Pepper Ave,Colton,San Bernardino County,CA,92324,6071,40140,1,-117.353488,34.077381
111762,CET-Watsonville,10 Blanca Lane,Watsonville,Santa Cruz County,CA,95076,6087,42100,1,-121.767991,36.931833
111799,CET-Salinas,24 East Alvin Drive,Salinas,Monterey County,CA,93906,6053,41500,1,-121.65236,36.707333
111887,Cerritos College,11110 Alondra Blvd,Norwalk,Los Angeles County,CA,90650-6298,6037,31080,1,-118.097337,33.886874
111896,Cerro Coso Community College,3000 College Heights Blvd,Ridgecrest,Kern County,CA,93555-9571,6029,12540,1,-117.66767,35.567525
111920,Chabot College,25555 Hesperian Blvd,Hayward,Alameda County,CA,94545,6001,41860,1,-122.105636,37.642458
111939,Chaffey College,5885 Haven Ave,Rancho Cucamonga,San Bernardino County,CA,91737-3002,6071,40140,1,-117.573932,34.147663
111948,Chapman University,One University Dr.,Orange,Orange County,CA,92866,6059,31080,1,-117.852518,33.79302
111966,Charles R Drew University of Medicine and Science,1731 E 120th St,Los Angeles,Los Angeles County,CA,90059,6037,31080,1,-118.242791,33.925658
112075,Concordia University-Irvine,1530 Concordia West,Irvine,Orange County,CA,92612-3203,6059,31080,1,-117.812305,33.653665
112084,San Diego Christian College,200 Riverview Parkway,Santee,San Diego County,CA,92071,6073,41740,1,-116.978112,32.842404
112093,Stockton Christian Life College,9023 West Lane,Stockton,San Joaquin County,CA,95210-1401,6077,44700,1,-121.296258,38.029827
112127,Church Divinity School of the Pacific,2451 Ridge Road,Berkeley,Alameda County,CA,94709-1211,6001,41860,1,-122.261122,37.876184
112172,Citrus College,1000 W Foothill Blvd,Glendora,Los Angeles County,CA,91741-1899,6037,31080,1,-117.885266,34.135487
112181,Citrus Heights Beauty College,7518 Baird Way,Citrus Heights,Sacramento County,CA,95610-1410,6067,40900,1,-121.289529,38.712951
112190,City College of San Francisco,50 Frida Kahlo Drive,San Francisco,San Francisco County,CA,94112-1898,6075,41860,1,-122.451155,37.725953
112251,Claremont Graduate University,150 E Tenth St,Claremont,Los Angeles County,CA,91711-6160,6037,31080,1,-117.713703,34.103585
112260,Claremont McKenna College,500 E 9th St,Claremont,Los Angeles County,CA,91711-6400,6037,31080,1,-117.711188,34.102154
112288,Milan Institute-Visalia,6500 S. Mooney Blvd.,Visalia,Tulare County,CA,93277,6107,47300,1,-119.312151,36.27164
112367,Clovis Adult Education,1452 David E Cook Way,Clovis,Fresno County,CA,93611,6019,23420,1,-119.690369,36.834459
112376,Coast Community College District Office,1370 Adams Ave.,Costa Mesa,Orange County,CA,92626,6059,31080,1,-117.916066,33.674004
112385,Coastline Community College,11460 Warner Ave.,Fountain Valley,Orange County,CA,92708-2597,6059,31080,1,-117.929143,33.715634
112394,Cogswell College,191 Baypointe Parkway,San Jose,Santa Clara County,CA,95134,6085,41940,1,-121.94087,37.414049
112455,Coba Academy,663 N. Euclid Street,Anaheim,Orange County,CA,92801,6059,31080,1,-117.943108,33.841141
112525,Western University of Health Sciences,309 E 2nd St,Pomona,Los Angeles County,CA,91766-1854,6037,31080,1,-117.747732,34.058092
112561,Columbia College,11600 Columbia College Dr,Sonora,Tuolumne County,CA,95370,6109,43760,2,-120.388385,38.030367
112570,Columbia College Hollywood,18618 Oxnard St,Tarzana,Los Angeles County,CA,91356-1411,6037,31080,1,-118.538793,34.17972
112686,Compton College,1111 East Artesia Blvd.,Compton,Los Angeles County,CA,90221-5393,6037,31080,1,-118.209463,33.878226
112817,Contra Costa Community College District Office,500 Court St,Martinez,Contra Costa County,CA,94553,6013,41860,1,-122.135335,38.019072
112826,Contra Costa College,2600 Mission Bell Dr,San Pablo,Contra Costa County,CA,94806-3195,6013,41860,1,-122.337377,37.969381
113096,Cosumnes River College,8401 Center Parkway,Sacramento,Sacramento County,CA,95823-5799,6067,40900,1,-121.423108,38.45295
113111,Crafton Hills College,11711 Sand Canyon Road,Yucaipa,San Bernardino County,CA,92339-1799,6071,40140,1,-117.101173,34.039178
113193,Cuesta College,Highway 1,San Luis Obispo,San Luis Obispo County,CA,93403-8106,6079,42020,1,-120.742235,35.331276
113218,Cuyamaca College,900 Rancho San Diego Pky,El Cajon,San Diego County,CA,92019,6073,41740,1,-116.943507,32.744954
113236,Cypress College,9200 Valley View,Cypress,Orange County,CA,90630-5897,6059,31080,1,-118.025143,33.82833
113333,De Anza College,21250 Stevens Creek Blvd.,Cupertino,Santa Clara County,CA,95014,6085,41940,1,-122.045558,37.320788
113449,International School of Beauty Inc,72261 Hwy 111 Ste 121-B,Palm Desert,Riverside County,CA,92260-2740,6065,40140,1,-116.403928,33.729555
113537,Dell'Arte International School of Physical Theatre,131 H Street,Blue Lake,Humboldt County,CA,95525-0816,6023,21700,2,-123.988808,40.880924
113573,College of the Desert,43-500 Monterey Ave,Palm Desert,Riverside County,CA,92260,6065,40140,1,-116.388271,33.732108
113582,Design Institute of San Diego,8555 Commerce Ave,San Diego,San Diego County,CA,92121,6073,41740,1,-117.167374,32.880926
113634,Diablo Valley College,321 Golf Club Rd,Pleasant Hill,Contra Costa County,CA,94523,6013,41860,1,-122.073142,37.968516
113698,Dominican University of California,50 Acacia Ave,San Rafael,Marin County,CA,94901-2298,6041,41860,1,-122.512051,37.981279
113704,Dominican School of Philosophy & Theology,2301 Vine Street,Berkeley,Alameda County,CA,94708-1816,6001,41860,1,-122.264612,37.881099
113856,East Los Angeles College,1301 Avenida Cesar Chavez,Monterey Park,Los Angeles County,CA,91754-6099,6037,31080,1,-118.148785,34.040531
113980,El Camino Community College District,16007 Crenshaw Blvd,Torrance,Los Angeles County,CA,90506,6037,31080,1,-118.329913,33.885229
114044,Elegance International,6767 Sunset Blvd,Hollywood,Los Angeles County,CA,90028,6037,31080,1,-118.338111,34.098445
114114,Emperor's College of Traditional Oriental Medicine,"1807 Wilshire Blvd, Ste #200",Santa Monica,Los Angeles County,CA,90403,6037,31080,1,-118.485119,34.030438
114123,Empire College,3035 Cleveland Ave,Santa Rosa,Sonoma County,CA,95403-2126,6097,42220,1,-122.729337,38.468052
114266,Evergreen Valley College,3095 Yerba Buena Rd,San Jose,Santa Clara County,CA,95135-1598,6085,41940,1,-121.76561,37.30167
114354,FIDM-Fashion Institute of Design & Merchandising-Los Angeles,919 S Grand Ave,Los Angeles,Los Angeles County,CA,90015-1421,6037,31080,1,-118.25993,34.044209
114390,FIDM-Fashion Institute of Design & Merchandising-San Francisco,55 Stockton St,San Francisco,San Francisco County,CA,94108-5805,6075,41860,1,-122.406651,37.786353
114415,FIDM-Fashion Institute of Design & Merchandising-Orange County,17590 Gillette Avenue,Irvine,Orange County,CA,92614-5610,6059,31080,1,-117.852254,33.691963
114433,Feather River Community College District,570 Golden Eagle Ave,Quincy,Plumas County,CA,95971-9124,6063,-2,-2,-120.973067,39.953101
114460,Federico Beauty Institute,1515 Sports Drive    Ste 100,Sacramento,Sacramento County,CA,95834,6067,40900,1,-121.497761,38.64883
114549,Fielding Graduate University,2020 De La Vina St,Santa Barbara,Santa Barbara County,CA,93105-3538,6083,42200,1,-119.717161,34.42941
114585,Five Branches University,200 7th Avenue,Santa Cruz,Santa Cruz County,CA,95062,6087,42100,1,-121.998245,36.964348
114637,Redondo Beach Beauty College,2205 West Artesia Boulevard,Redondo Beach,Los Angeles County,CA,90278-3111,6037,31080,1,-118.372137,33.873098
114716,Foothill College,12345 El Monte Rd,Los Altos Hills,Santa Clara County,CA,94022,6085,41940,1,-122.127964,37.361655
114734,Franciscan School of Theology,4050 Mission Avenue,Oceanside,San Diego County,CA,92057,6073,41740,1,-117.320066,33.232416
114761,Fredrick and Charles Beauty College,831 F St,Eureka,Humboldt County,CA,95501,6023,21700,2,-124.164986,40.798885
114789,Fresno City College,1101 E. University Ave,Fresno,Fresno County,CA,93741,6019,23420,1,-119.796096,36.768164
114813,Fresno Pacific University,1717 S Chestnut Ave,Fresno,Fresno County,CA,93702-4709,6019,23420,1,-119.735199,36.726831
114831,Foothill-De Anza Community College District,12345 El Monte Rd,Los Altos Hills,Santa Clara County,CA,94022-4599,6085,41940,1,-122.12796,37.361664
114840,Fuller Theological Seminary,135 N Oakland Ave,Pasadena,Los Angeles County,CA,91182,6037,31080,1,-118.140261,34.14778
114859,Fullerton College,321 E Chapman Avenue,Fullerton,Orange County,CA,92832-2095,6059,31080,1,-117.918255,33.875514
114938,Gavilan College,5055 Santa Teresa Blvd,Gilroy,Santa Clara County,CA,95020,6085,41940,1,-121.569842,36.972627
114947,Gemological Institute of America-Carlsbad,5345 Armada Dr,Carlsbad,San Diego County,CA,92008,6073,41740,1,-117.318765,33.131313
115001,Glendale Community College,1500 N Verdugo Rd,Glendale,Los Angeles County,CA,91208-2894,6037,31080,1,-118.227666,34.16745
115010,Glendale Career College,240 North Brand Boulevard Lower Level,Glendale,Los Angeles County,CA,91203,6037,31080,1,-118.254719,34.149771
115083,Golden Gate University-San Francisco,536 Mission Street,San Francisco,San Francisco County,CA,94105-2968,6075,41860,1,-122.398969,37.789374
115126,Golden West College,15744 Goldenwest St.,Huntington Beach,Orange County,CA,92647-2710,6059,31080,1,-118.002568,33.732531
115214,Graduate Theological Union,2400 Ridge Rd,Berkeley,Alameda County,CA,94709,6001,41860,1,-122.261847,37.87554
115287,Grossmont-Cuyamaca Community College District,8800 Grossmont College Dr,El Cajon,San Diego County,CA,92020-1799,6073,41740,1,-117.006277,32.815246
115296,Grossmont College,8800 Grossmont College Dr,El Cajon,San Diego County,CA,92020-1799,6073,41740,1,-117.006277,32.815246
115357,Salon Success Academy-Riverside,6780 Indiana Ave. Ste #200,Riverside,Riverside County,CA,92506,6065,40140,1,-117.391024,33.943149
115393,Hartnell College,411 Central Avenue,Salinas,Monterey County,CA,93901,6053,41500,1,-121.666054,36.675091
115409,Harvey Mudd College,301 Platt Blvd.,Claremont,Los Angeles County,CA,91711,6037,31080,1,-117.709837,34.106515
115658,Hilltop Beauty School,6317 Mission St,Daly City,San Mateo County,CA,94014,6081,41860,1,-122.461467,37.705502
115728,Holy Names University,3500 Mountain Blvd,Oakland,Alameda County,CA,94619-1699,6001,41860,1,-122.187804,37.802276
115746,Pacifica Graduate Institute,249 Lambert Rd,Carpinteria,Santa Barbara County,CA,93013,6083,42200,1,-119.580414,34.420881
115755,Humboldt State University,1 Harpst Street,Arcata,Humboldt County,CA,95521-8299,6023,21700,2,-124.078293,40.877481
115773,Humphreys University-Stockton and Modesto Campuses,6650 Inglewood Ave,Stockton,San Joaquin County,CA,95207-3896,6077,44700,1,-121.316918,38.011489
115861,Imperial Valley College,380 E. Aten Road,Imperial,Imperial County,CA,92251-0158,6025,20940,1,-115.503563,32.827209
115931,Institute for Business and Technology,2400 Walsh Avenue,Santa Clara,Santa Clara County,CA,95051-1303,6085,41940,1,-121.969541,37.368642
116226,Interior Designers Institute,1061 Camelback Street,Newport Beach,Orange County,CA,92660,6059,31080,1,-117.865722,33.641393
116350,Toni & Guy Hairdressing Academy-Santa Monica,1358 5th St,Santa Monica,Los Angeles County,CA,90401,6037,31080,1,-118.494755,34.017276
116439,Irvine Valley College,5500 Irvine Center Drive,Irvine,Orange County,CA,92618-0301,6059,31080,1,-117.777539,33.675381
116563,Bellus Academy-El Cajon,1073 E Main St,El Cajon,San Diego County,CA,92021,6073,41740,1,-116.94627,32.794072
116712,John F. Kennedy University,100 Ellinwood Way,Pleasant Hill,Contra Costa County,CA,94523-4817,6013,41860,1,-122.054761,37.956616
116846,American Jewish University,15600 Mulholland Dr,Los Angeles,Los Angeles County,CA,90077-1519,6037,31080,1,-118.471706,34.128153
117052,Reedley College,995 N Reed Ave,Reedley,Fresno County,CA,93654,6019,23420,1,-119.458555,36.605428
117104,Life Pacific University,1100 W. Covina Blvd.,San Dimas,Los Angeles County,CA,91773-3298,6037,31080,1,-117.829388,34.098705
117140,University of La Verne,1950 Third St,La Verne,Los Angeles County,CA,91750-4401,6037,31080,1,-117.773262,34.100855
117168,Laguna College of Art and Design,2222 Laguna Canyon Rd,Laguna Beach,Orange County,CA,92651,6059,31080,1,-117.772564,33.561448
117195,Lake Tahoe Community College,One College Drive,South Lake Tahoe,El Dorado County,CA,96150,6017,40900,1,-119.972574,38.926797
117238,Lancaster Beauty School,44646 N 10th St W,Lancaster,Los Angeles County,CA,93534,6037,31080,1,-118.147547,34.694914
117247,Laney College,900 Fallon Sreet,Oakland,Alameda County,CA,94607,6001,41860,1,-122.26283,37.797257
117274,Lassen Community College,478-200 Hwy 139,Susanville,Lassen County,CA,96130,6035,45000,2,-120.633271,40.432053
117520,Life Chiropractic College West,25001 Industrial Blvd,Hayward,Alameda County,CA,94545-2800,6001,41860,1,-122.117619,37.638099
117548,Lincoln Law School of Sacramento,3140 J Street,Sacramento,Sacramento County,CA,95816,6067,40900,1,-121.464021,38.57216
117557,Lincoln University,401 15th Street,Oakland,Alameda County,CA,94612-2801,6001,41860,1,-122.269745,37.804788
117575,Southern California Seminary,2075 E. Madison Avenue,El Cajon,San Diego County,CA,92019-1108,6073,41740,1,-116.905461,32.799614
117627,La Sierra University,4500 Riverwalk Parkway,Riverside,Riverside County,CA,92505-8247,6065,40140,1,-117.500054,33.910704
117636,Loma Linda University,11139 Anderson Street,Loma Linda,San Bernardino County,CA,92350,6071,40140,1,-117.260605,34.051241
117645,Long Beach City College,4901 E. Carson St.,Long Beach,Los Angeles County,CA,90808-1706,6037,31080,1,-118.135633,33.833593
117672,Southern California University of Health Sciences,16200 East Amber Valley Drive,Whittier,Los Angeles County,CA,90604,6037,31080,1,-117.983401,33.922966
117681,Los Angeles Community College District Office,770 Wilshire Blvd,Los Angeles,Los Angeles County,CA,90017,6037,31080,1,-118.258047,34.048969
117690,Los Angeles Harbor College,1111 Figueroa Place,Wilmington,Los Angeles County,CA,90744-2397,6037,31080,1,-118.28186,33.784201
117706,Los Angeles Pierce College,6201 Winnetka Ave,Woodland Hills,Los Angeles County,CA,91371-0002,6037,31080,1,-118.575071,34.183949
117715,Los Angeles Southwest College,1600 W. Imperial Hwy.,Los Angeles,Los Angeles County,CA,90047-4899,6037,31080,1,-118.304674,33.929586
117724,Los Angeles Trade Technical College,400 W Washington Blvd,Los Angeles,Los Angeles County,CA,90015-4181,6037,31080,1,-118.269447,34.031907
117733,Los Angeles Valley College,5800 Fulton Avenue,Valley Glen,Los Angeles County,CA,91401-4096,6037,31080,1,-118.421734,34.175165
117751,The Master's University and Seminary,21726 Placerita Canyon Road,Santa Clarita,Los Angeles County,CA,91321-1200,6037,31080,1,-118.518193,34.381755
117788,Los Angeles City College,855 N Vermont Ave,Los Angeles,Los Angeles County,CA,90029,6037,31080,1,-118.292169,34.087301
117803,Los Angeles County College of Nursing and Allied Health,1237 N. Mission Rd.,Los Angeles,Los Angeles County,CA,90033-1084,6037,31080,1,-118.211852,34.062647
117867,Los Angeles Mission College,13356 Eldridge Avenue,Sylmar,Los Angeles County,CA,91342-3200,6037,31080,1,-118.4195,34.314668
117894,Los Medanos College,2700 East Leland Road,Pittsburg,Contra Costa County,CA,94565,6013,41860,1,-121.860967,38.006474
117900,Los Rios Community College District Office,1919 Spanos Ct,Sacramento,Sacramento County,CA,95825-3981,6067,40900,1,-121.417145,38.579859
117946,Loyola Marymount University,One Lmu Drive,Los Angeles,Los Angeles County,CA,90045-2659,6037,31080,1,-118.415744,33.97085
117955,Lu Ross Academy,470 East Thompson Blvd,Ventura,Ventura County,CA,93001-2729,6111,37100,1,-119.293952,34.278034
118134,Lyle's College of Beauty,2935 F St,Bakersfield,Kern County,CA,93301,6029,12540,1,-119.02387,35.386539
118143,Lyle's College of  Beauty,6735 N First Ave Ste 112,Fresno,Fresno County,CA,93710,6019,23420,1,-119.774167,36.836265
118161,Lytles Redwood Empire Beauty College Inc,186 Wikiup Dr,Santa Rosa,Sonoma County,CA,95403,6097,42220,1,-122.75777,38.508385
118189,MTI Business College Inc,6006 N. El Dorado Street,Stockton,San Joaquin County,CA,95207-4349,6077,44700,1,-121.308445,38.007885
118198,MTI College,5221 Madison Avenue,Sacramento,Sacramento County,CA,95841-9817,6067,40900,1,-121.342568,38.661377
118347,College of Marin,835 College Ave,Kentfield,Marin County,CA,94904-2590,6041,41860,1,-122.549149,37.954897
118541,Marymount California University,30800 Palos Verdes Drive East,Rancho Palos Verdes,Los Angeles County,CA,90275-6299,6037,31080,1,-118.333371,33.734887
118684,Mendocino College,1000 Hensley Creek Road,Ukiah,Mendocino County,CA,95482,6045,46380,2,-123.228809,39.188989
118693,Menlo College,1000 El Camino Real,Atherton,San Mateo County,CA,94027-4301,6081,41860,1,-122.190797,37.453475
118718,Merced College,3600 M St,Merced,Merced County,CA,95348-2898,6047,32900,1,-120.476464,37.3353
118772,Merritt College,12500 Campus Dr,Oakland,Alameda County,CA,94619-3196,6001,41860,1,-122.167335,37.789088
118888,Mills College,5000 MacArthur Blvd,Oakland,Alameda County,CA,94613,6001,41860,1,-122.182294,37.781425
118912,MiraCosta College,One Barnard Drive,Oceanside,San Diego County,CA,92056-3899,6073,41740,1,-117.302606,33.190483
118930,Mission College,3000 Mission College Blvd,Santa Clara,Santa Clara County,CA,95054-1897,6085,41940,1,-121.980783,37.391935
118958,Modern Beauty Academy,699 South C St,Oxnard,Ventura County,CA,93030,6111,37100,1,-119.181423,34.195384
118976,Modesto Junior College,435 College Ave,Modesto,Stanislaus County,CA,95350-5800,6099,33700,1,-121.009792,37.651056
118994,Moler Barber College,3815 Telegraph Ave,Oakland,Alameda County,CA,94609-2419,6001,41860,1,-122.265352,37.827075
119058,Middlebury Institute of International Studies at Monterey,460 Pierce Street,Monterey,Monterey County,CA,93940,6053,41500,1,-121.897325,36.599736
119067,Monterey Peninsula College,980 Fremont St,Monterey,Monterey County,CA,93940-4799,6053,41500,1,-121.884931,36.590558
119137,Moorpark College,7075 Campus Rd,Moorpark,Ventura County,CA,93021-1695,6111,37100,1,-118.834528,34.301146
119164,Mt San Antonio College,1100 N Grand Ave,Walnut,Los Angeles County,CA,91789-1399,6037,31080,1,-117.846629,34.047764
119173,Mount Saint Mary's University,12001 Chalon Rd,Los Angeles,Los Angeles County,CA,90049-1599,6037,31080,1,-118.482879,34.085315
119216,Mt San Jacinto Community College District,1499 N. State St.,San Jacinto,Riverside County,CA,92583-2399,6065,40140,1,-116.971169,33.806748
119270,Musicians Institute,6752 Hollywood Blvd.,Hollywood,Los Angeles County,CA,90028,6037,31080,1,-118.337582,34.101265
119331,Napa Valley College,2277 Napa-Vallejo Hwy,Napa,Napa County,CA,94558-6236,6055,34900,1,-122.274381,38.274081
119553,National Holistic Institute,5900 Doyle Street,Emeryville,Alameda County,CA,94608-2008,6001,41860,1,-122.287672,37.841898
119605,National University,11255 North Torrey Pines Road,La Jolla,San Diego County,CA,92037-1011,6073,41740,1,-117.243026,32.909894
119678,Naval Postgraduate School,1 University Circle,Monterey,Monterey County,CA,93943,6053,41500,1,-121.874248,36.597159
119775,Newschool of Architecture and Design,1249 F St,San Diego,San Diego County,CA,92101,6073,41740,1,-117.153305,32.71331
119845,Newberry School of Beauty,16860 Devonshire Blvd,Granada Hills,Los Angeles County,CA,91344-7401,6037,31080,1,-118.499693,34.256683
119951,North Adrian's College of Beauty Inc,124 Floyd Ave,Modesto,Stanislaus County,CA,95350-2381,6099,33700,1,-120.992753,37.677778
120023,North Orange County Community College District,1830 W. Romneya Drive,Anaheim,Orange County,CA,92801-1819,6059,31080,1,-117.945559,33.849957
120069,North-West College-Pomona,170  W Holt Ave,Pomona,Los Angeles County,CA,91768,6037,31080,1,-117.751227,34.062043
120078,North-West College-West Covina,2121 W Garvey Ave,West Covina,Los Angeles County,CA,91790,6037,31080,1,-117.949583,34.072071
120087,North-West College-Van Nuys,14540 Haynes,Van Nuys,Los Angeles County,CA,91411,6037,31080,1,-118.450184,34.189497
120166,Northwestern Polytechnic University,47671 Westinghouse Drive,Fremont,Alameda County,CA,94539,6001,41860,1,-121.925953,37.477991
120184,Notre Dame de Namur University,1500 Ralston Ave,Belmont,San Mateo County,CA,94002-1908,6081,41860,1,-122.284794,37.517111
120254,Occidental College,1600 Campus Rd,Los Angeles,Los Angeles County,CA,90041-3392,6037,31080,1,-118.210908,34.127124
120290,Ohlone College,43600 Mission Blvd,Fremont,Alameda County,CA,94539-0390,6001,41860,1,-121.916339,37.52773
120342,Orange Coast College,2701 Fairview Road,Costa Mesa,Orange County,CA,92626,6059,31080,1,-117.909086,33.66927
120403,Otis College of Art and Design,9045 Lincoln Blvd,Los Angeles,Los Angeles County,CA,90045-3505,6037,31080,1,-118.416615,33.956607
120421,Oxnard College,4000 S Rose Ave,Oxnard,Ventura County,CA,93033-6699,6111,37100,1,-119.157604,34.166104
120537,Hope International University,2500 E Nutwood Ave,Fullerton,Orange County,CA,92831-3199,6059,31080,1,-117.88573,33.87616
120661,Concorde Career College-San Diego,"4393 Imperial Avenue, Suite 100",San Diego,San Diego County,CA,92113-1964,6073,41740,1,-117.102845,32.702814
120698,Palo Alto University,1791 Arastradero Rd,Palo Alto,Santa Clara County,CA,94304-1337,6085,41940,1,-122.187437,37.382216
120768,Pacific Oaks College,45 Eureka Street,Pasadena,Los Angeles County,CA,91103,6037,31080,1,-118.151323,34.153382
120795,Pacific School of Religion,1798 Scenic Ave,Berkeley,Alameda County,CA,94709,6001,41860,1,-122.263155,37.87669
120838,Pacific States University,3424 Wilshire Blvd. 12th floor,Los Angeles,Los Angeles County,CA,90010-2263,6037,31080,1,-118.298408,34.061315
120865,Pacific Union College,One Angwin Ave,Angwin,Napa County,CA,94508-9707,6055,34900,1,-122.440308,38.570585
120883,University of the Pacific,3601 Pacific Ave,Stockton,San Joaquin County,CA,95211-0197,6077,44700,1,-121.312301,37.981424
120953,Palo Verde College,One College Drive,Blythe,Riverside County,CA,92225,6065,40140,1,-114.651698,33.661538
120971,Palomar College,1140 W. Mission,San Marcos,San Diego County,CA,92069-1487,6073,41740,1,-117.183978,33.149483
121044,Pasadena City College,1570 E Colorado Blvd.,Pasadena,Los Angeles County,CA,91106-2003,6037,31080,1,-118.118196,34.144552
121150,Pepperdine University,24255 Pacific Coast Hwy,Malibu,Los Angeles County,CA,90263,6037,31080,1,-118.707077,34.037786
121178,Peralta Community College System Office,333 E Eighth St,Oakland,Alameda County,CA,94606,6001,41860,1,-122.260837,37.792667
121257,Pitzer College,1050 North Mills Avenue,Claremont,Los Angeles County,CA,91711-6101,6037,31080,1,-117.706675,34.104107
121275,Platt College-San Diego,6250 El Cajon Blvd,San Diego,San Diego County,CA,92115-3919,6073,41740,1,-117.063483,32.76373
121309,Point Loma Nazarene University,3900 Lomaland Dr,San Diego,San Diego County,CA,92106-2899,6073,41740,1,-117.250265,32.718391
121345,Pomona College,550 N College Ave,Claremont,Los Angeles County,CA,91711-6319,6037,31080,1,-117.714556,34.099027
121363,Porterville College,100 E College Ave,Porterville,Tulare County,CA,93257,6107,47300,1,-119.014368,36.049256
121433,Professional Institute of Beauty,10801 E. Valley Mall,El Monte,Los Angeles County,CA,91731,6037,31080,1,-118.039028,34.075561
121619,Santa Ana College,1530 W. 17th Street,Santa Ana,Orange County,CA,92706-3398,6059,31080,1,-117.887558,33.759309
121628,Pardee RAND Graduate School,1776 Main St,Santa Monica,Los Angeles County,CA,90401-3208,6037,31080,1,-118.490655,34.00973
121637,Shasta School of Cosmetology,678 N Market St,Redding,Shasta County,CA,96003,6089,39820,1,-122.387248,40.597114
121691,University of Redlands,1200 E. Colton Ave,Redlands,San Bernardino County,CA,92373-0999,6071,40140,1,-117.163218,34.064218
121707,College of the Redwoods,7351 Tompkins Hill Rd,Eureka,Humboldt County,CA,95501-9300,6023,21700,2,-124.195293,40.698427
121859,Salon Success Academy-Upland,1385 E. Foothill Blvd,Upland,San Bernardino County,CA,91786,6071,40140,1,-117.631783,34.108247
121868,Salon Success Academy-Corona,2097 Compton Ave. Suite 201,Corona,Riverside County,CA,92881,6065,40140,1,-117.535638,33.847649
121886,Rio Hondo College,3600 Workman Mill Rd,Whittier,Los Angeles County,CA,90601-1616,6037,31080,1,-118.033506,34.019821
121901,Riverside City College,4800 Magnolia Avenue,Riverside,Riverside County,CA,92506,6065,40140,1,-117.384323,33.970918
121992,Rosemead Beauty School,8531 E Valley Blvd,Rosemead,Los Angeles County,CA,91770-1639,6037,31080,1,-118.082793,34.080756
122117,Dongguk University-Los Angeles,440 Shatto Pl,Los Angeles,Los Angeles County,CA,90020-1704,6037,31080,1,-118.289523,34.06597
122180,Sacramento City College,3835 Freeport Blvd,Sacramento,Sacramento County,CA,95822-1386,6067,40900,1,-121.491139,38.541096
122205,Saddleback College,28000 Marguerite Pky,Mission Viejo,Orange County,CA,92692-3635,6059,31080,1,-117.665584,33.553346
122296,Samuel Merritt University,3100 Telegraph Avenue,Oakland,Alameda County,CA,94609,6001,41860,1,-122.266331,37.82029
122320,San Diego Community College District-District Office,3375 Camino del Rio South,San Diego,San Diego County,CA,92108,6073,41740,1,-117.120504,32.776275
122339,San Diego City College,1313 Park Boulevard,San Diego,San Diego County,CA,92101-4787,6073,41740,1,-117.152733,32.717403
122375,San Diego Mesa College,7250 Mesa College Dr,San Diego,San Diego County,CA,92111-4998,6073,41740,1,-117.169165,32.803825
122384,San Diego Miramar College,10440 Black Mountain Rd,San Diego,San Diego County,CA,92126-2999,6073,41740,1,-117.120261,32.909757
122409,San Diego State University,5500 Campanile Dr,San Diego,San Diego County,CA,92182-0001,6073,41740,1,-117.071228,32.77525
122436,University of San Diego,5998 Alcala Park,San Diego,San Diego County,CA,92110-2492,6073,41740,1,-117.192073,32.770816
122454,San Francisco Art Institute,800 Chestnut St,San Francisco,San Francisco County,CA,94133-2299,6075,41860,1,-122.417,37.803575
122506,San Francisco Conservatory of Music,50 Oak Street,San Francisco,San Francisco County,CA,94102-6011,6075,41860,1,-122.420292,37.775543
122597,San Francisco State University,1600 Holloway Ave,San Francisco,San Francisco County,CA,94132,6075,41860,1,-122.476799,37.721224
122603,San Francisco Theological Seminary,105 Seminary Road,San Anselmo,Marin County,CA,94960-0000,6041,41860,1,-122.565407,37.969952
122612,University of San Francisco,2130 Fulton St,San Francisco,San Francisco County,CA,94117-1080,6075,41860,1,-122.450477,37.776618
122649,San Joaquin College of Law,901 Fifth St,Clovis,Fresno County,CA,93612-1312,6019,23420,1,-119.697657,36.82448
122658,San Joaquin Delta College,5151 Pacific Ave,Stockton,San Joaquin County,CA,95207,6077,44700,1,-121.318266,37.995129
122685,San Joaquin Valley College-Visalia,8344 W Mineral King Ave,Visalia,Tulare County,CA,93291-9283,6107,47300,1,-119.384981,36.328049
122728,William Jessup University,2121 University Avenue,Rocklin,Placer County,CA,95765-3707,6061,40900,1,-121.292312,38.819728
122737,San Jose-Evergreen Community College District,40 South Market Street,San Jose,Santa Clara County,CA,95113-1599,6085,41940,1,-121.89118,37.334851
122746,San Jose City College,2100 Moorpark Ave,San Jose,Santa Clara County,CA,95128-2798,6085,41940,1,-121.926185,37.315827
122755,San Jose State University,One Washington Square,San Jose,Santa Clara County,CA,95192-0001,6085,41940,1,-121.880621,37.336569
122782,San Mateo County Community College District Office,3401 CSM Drive,San Mateo,San Mateo County,CA,94402,6081,41860,1,-122.337627,37.531305
122791,College of San Mateo,1700 W Hillsdale Blvd,San Mateo,San Mateo County,CA,94402-3784,6081,41860,1,-122.334801,37.535698
122834,Santa Barbara Business College-Bakersfield,5300 California Avenue,Bakersfield,Kern County,CA,93309,6029,12540,1,-119.061264,35.359544
122852,Santa Barbara Business College-Santa Maria,303 E Plaza Dr Ste 1,Santa Maria,Santa Barbara County,CA,93454,6083,42200,1,-120.433296,34.937806
122889,Santa Barbara City College,721 Cliff Drive,Santa Barbara,Santa Barbara County,CA,93109-2394,6083,42200,1,-119.698045,34.406788
122931,Santa Clara University,500 El Camino Real,Santa Clara,Santa Clara County,CA,95053,6085,41940,1,-121.93784,37.348362
122977,Santa Monica College,1900 Pico Blvd,Santa Monica,Los Angeles County,CA,90405-1628,6037,31080,1,-118.469765,34.017022
123013,Santa Rosa Junior College,1501 Mendocino Avenue,Santa Rosa,Sonoma County,CA,95401-4395,6097,42220,1,-122.718974,38.45709
123095,Saybrook University,55 W Eureka Street,Pasadena,Los Angeles County,CA,91103,6037,31080,1,-118.152155,34.153103
123165,Scripps College,1030 North Columbia Avenue,Claremont,Los Angeles County,CA,91711-3905,6037,31080,1,-117.711294,34.104147
123217,College of the Sequoias,915 S. Mooney Blvd,Visalia,Tulare County,CA,93277-2214,6107,47300,1,-119.315182,36.323877
123280,Shasta Bible College and Graduate School,2951 Goodwater Ave.,Redding,Shasta County,CA,96002,6089,39820,1,-122.314419,40.566034
123299,Shasta College,11555 Old Oregon Trail,Redding,Shasta County,CA,96003,6089,39820,1,-122.317982,40.625731
123341,Sierra College,5100 Sierra College Blvd,Rocklin,Placer County,CA,95677-3397,6061,40900,1,-121.211688,38.790773
123350,Sierra College of Beauty,1340 W 18th St,Merced,Merced County,CA,95340,6047,32900,1,-120.495874,37.306975
123448,Trinity Law School,2200 N Grand Ave,Santa Ana,Orange County,CA,92705,6059,31080,1,-117.852059,33.766071
123457,Simpson University,2211 College View Drive,Redding,Shasta County,CA,96003-8606,6089,39820,1,-122.332981,40.61334
123484,College of the Siskiyous,800 College Ave,Weed,Siskiyou County,CA,96094-2899,6093,-2,-2,-122.38909,41.413005
123493,Charles A Jones Career and Education Center,5451 Lemon Hill Ave,Sacramento,Sacramento County,CA,95824-1529,6067,40900,1,-121.440796,38.516233
123509,Skyline College,3300 College Dr,San Bruno,San Mateo County,CA,94066-1698,6081,41860,1,-122.467335,37.63042
123527,San Bernardino Valley College,701 South Mount Vernon Avenue,San Bernardino,San Bernardino County,CA,92410-2798,6071,40140,1,-117.313248,34.086353
123554,Saint Mary's College of California,1928 Saint Marys Road,Moraga,Contra Costa County,CA,94575,6013,41860,1,-122.109031,37.840731
123563,Solano Community College,4000 Suisun Valley Rd,Fairfield,Solano County,CA,94534-3197,6095,46700,1,-122.122368,38.235881
123572,Sonoma State University,1801 E Cotati Ave,Rohnert Park,Sonoma County,CA,94928-3609,6097,42220,1,-122.677066,38.340274
123633,South Baylo University,1126 N Brookhurst St,Anaheim,Orange County,CA,92801-1701,6059,31080,1,-117.958727,33.848216
123642,South Coast College,2011 W. Chapman Avenue,Orange,Orange County,CA,92868-2609,6059,31080,1,-117.874031,33.78818
123651,Vanguard University of Southern California,55 Fair Dr,Costa Mesa,Orange County,CA,92626,6059,31080,1,-117.900911,33.662686
123679,Concorde Career College-Garden Grove,"12951 Euclid Street, Suite 101",Garden Grove,Orange County,CA,92840-9201,6059,31080,1,-117.938395,33.774741
123800,Southwestern College,900 Otay Lakes Rd.,Chula Vista,San Diego County,CA,91910-7299,6073,41740,1,-116.996803,32.640281
123855,St John's Seminary,5012 Seminary Rd,Camarillo,Ventura County,CA,93012-2500,6111,37100,1,-119.001867,34.243921
123916,Starr King School for the Ministry,2441 Le Conte Avenue,Berkeley,Alameda County,CA,94709-1209,6001,41860,1,-122.261778,37.876939
123925,State Center Community College District,1171 Fulton Street,Fresno,Fresno County,CA,93721,6019,23420,1,-119.792324,36.735642
123943,Marshall B Ketchum University,2575 Yorba Linda Blvd,Fullerton,Orange County,CA,92831-1699,6059,31080,1,-117.886229,33.889348
123952,Southern California Institute of Architecture,960 E. 3rd Street,Los Angeles,Los Angeles County,CA,90013-1822,6037,31080,1,-118.232799,34.044215
123961,University of Southern California,University Park,Los Angeles,Los Angeles County,CA,90089,6037,31080,1,-118.284169,34.021281
123970,Southwestern Law School,3050 Wilshire Boulevard,Los Angeles,Los Angeles County,CA,90010-1106,6037,31080,1,-118.288375,34.061558
124113,Taft College,29 Cougar Court,Taft,Kern County,CA,93268,6029,12540,1,-119.459751,35.149343
124283,Claremont School of Theology,1325 N College Ave,Claremont,Los Angeles County,CA,91711-3199,6037,31080,1,-117.715256,34.107602
124292,Thomas Aquinas College,"10,000 Ojai Road",Santa Paula,Ventura County,CA,93060,6111,37100,1,-119.087141,34.429009
124487,Epic Bible College,4330 Auburn Boulevard,Sacramento,Sacramento County,CA,95841,6067,40900,1,-121.362642,38.645152
124557,University of California-System Administration Central Office,1111 Franklin St,Oakland,Alameda County,CA,94607-5200,6001,41860,1,-122.27134,37.802222
124681,United Education Institute-Huntington Park Campus,6055 Pacific Boulevard,Huntington Park,Los Angeles County,CA,90255,6037,31080,1,-118.226206,33.986057
124706,Concorde Career College-San Bernardino,"201 East Airport Drive, Suite A",San Bernardino,San Bernardino County,CA,92408-3403,6071,40140,1,-117.283995,34.066823
124937,Concorde Career College-North Hollywood,12412 Victory Boulevard,North Hollywood,Los Angeles County,CA,91606-3134,6037,31080,1,-118.403627,34.186407
125019,Ventura County Community College System Office,"761 E. Daily Drive, Suite 200",Camarillo,Ventura County,CA,93010,6111,37100,1,-119.057951,34.219073
125028,Ventura College,4667 Telegraph Rd,Ventura,Ventura County,CA,93003-3872,6111,37100,1,-119.230604,34.277393
125037,The Santa Barbara and Ventura Colleges of Law at Ventura,4475 Market St,Ventura,Ventura County,CA,93003,6111,37100,1,-119.232988,34.25747
125091,Victor Valley College,18422 Bear Valley Rd,Victorville,San Bernardino County,CA,92395-5850,6071,40140,1,-117.261456,34.472231
125170,Berkeley City College,2050 Center Sreet,Berkeley,Alameda County,CA,94704,6001,41860,1,-122.269877,37.869769
125222,West Valley Mission Community College District Office,14000 Fruitvale Ave,Saratoga,Santa Clara County,CA,95070-5698,6085,41940,1,-122.008324,37.26398
125231,Walden University,"100 Washington Avenue South, Suite 900",Minneapolis,Hennepin County,MN,55401,27053,33460,1,-93.265738,44.98125
125310,Waynes College of Beauty,1271 North Main Street,Salinas,Monterey County,CA,93906-2830,6053,41500,1,-121.652672,36.700635
125462,West Hills College-Coalinga,300 Cherry Lane,Coalinga,Fresno County,CA,93210,6019,23420,1,-120.356747,36.147891
125471,West Los Angeles College,9000 Overland Avenue,Culver City,Los Angeles County,CA,90230-3519,6037,31080,1,-118.386664,34.004512
125499,West Valley College,14000 Fruitvale Ave,Saratoga,Santa Clara County,CA,95070-5698,6085,41940,1,-122.008324,37.26398
125532,Carrington College-Sacramento,8909 Folsom Blvd.,Sacramento,Sacramento County,CA,95826,6067,40900,1,-121.371331,38.556151
125718,Westminster Theological Seminary in California,1725 Bear Valley Parkway,Escondido,San Diego County,CA,92027,6073,41740,1,-117.046371,33.121447
125727,Westmont College,955 La Paz Rd,Santa Barbara,Santa Barbara County,CA,93108-1089,6083,42200,1,-119.662517,34.450151
125763,Whittier College,13406 E Philadelphia Street,Whittier,Los Angeles County,CA,90601,6037,31080,1,-118.032299,33.978773
125897,Woodbury University,7500 Glenoaks Blvd,Burbank,Los Angeles County,CA,91504-1052,6037,31080,1,-118.341147,34.208011
126012,The Wright Institute,2728 Durant Ave,Berkeley,Alameda County,CA,94704-1796,6001,41860,1,-122.253168,37.868221
126049,Thomas Jefferson School of Law,701 B Street - Suite 110,San Diego,San Diego County,CA,92101,6073,41740,1,-117.157862,32.717595
126076,Yeshiva Ohr Elchonon Chabad West Coast Talmudical Seminary,7215 Waring Ave,Los Angeles,Los Angeles County,CA,90046-7660,6037,31080,1,-118.346613,34.085465
126100,Yosemite Community College District Office,2201 Blue Gum Ave,Modesto,Stanislaus County,CA,95358,6099,33700,1,-121.040246,37.66107
126119,Yuba College,2088 N Beale Rd,Marysville,Yuba County,CA,95901,6115,49700,1,-121.53964,39.126536
126164,The Salon Professional Academy-Grand Junction,432 North Avenue,Grand Junction,Mesa County,CO,81501,8077,24300,1,-108.56521,39.078114
126182,Adams State University,208 Edgemont Blvd,Alamosa,Alamosa County,CO,81101,8003,-2,-2,-105.879642,37.473636
126207,Aims Community College,5401 W. 20th St.,Greeley,Weld County,CO,80634,8123,24540,1,-104.763415,40.409559
126289,Arapahoe Community College,5900 S. Santa Fe Dr.,Littleton,Arapahoe County,CO,80160-9002,8005,19740,1,-105.018631,39.607505
126359,Bel-Rea Institute of Animal Technology,1681 S Dayton St,Denver,Arapahoe County,CO,80247,8005,19740,1,-104.876207,39.686194
126562,University of Colorado Denver/Anschutz Medical Campus,"1380 Lawrence Street, Lawrence Street Center, Suite 1400",Denver,Adams County,CO,80217-3364,8001,19740,1,-104.837722,39.745149
126580,University of Colorado Colorado Springs,1420 Austin Bluffs Parkway,Colorado Springs,El Paso County,CO,80918,8041,17820,1,-104.800296,38.892735
126605,Spartan College of Aeronautics and Technology,10851 W 120th Ave,Broomfield,Broomfield County,CO,80021-3465,8014,19740,1,-105.119096,39.914822
126614,University of Colorado Boulder,Regent Drive at Broadway,Boulder,Boulder County,CO,80309-0017,8013,14500,1,-105.270823,40.008781
126669,Colorado Christian University,8787 West Alameda Avenue,Lakewood,Jefferson County,CO,80226,8059,19740,1,-105.09456,39.71388
126678,Colorado College,14. E Cache La Poudre St.,Colorado Springs,El Paso County,CO,80903,8041,17820,1,-104.822697,38.84886
126687,Concorde Career College-Aurora,111 N. Havana Street,Aurora,Arapahoe County,CO,80010-4314,8005,19740,1,-104.867089,39.718699
126711,Colorado Mountain College,802 Grand Ave.,Glenwood Springs,Garfield County,CO,81601-0233,8045,24060,2,-107.324441,39.54636
126748,Colorado Northwestern Community College,500 Kennedy Drive,Rangely,Rio Blanco County,CO,81648-3598,8103,-2,-2,-108.790048,40.081112
126775,Colorado School of Mines,1500 Illinois St,Golden,Jefferson County,CO,80401,8059,19740,1,-105.223364,39.751443
126784,Colorado School of Trades,1575 Hoyt St,Lakewood,Jefferson County,CO,80215-2996,8059,19740,1,-105.104174,39.74181
126818,Colorado State University-Fort Collins,102 Administration Building,Fort Collins,Larimer County,CO,80523-0100,8069,22660,1,-105.080732,40.574805
126827,Colorado Technical University-Colorado Springs,4435 N Chestnut Street,Colorado Springs,El Paso County,CO,80907-3812,8041,17820,1,-104.833928,38.894265
126863,Community College of Aurora,16000 E CentreTech Pky,Aurora,Arapahoe County,CO,80011-9036,8005,19740,1,-104.802673,39.71788
126872,CollegeAmerica-Denver,"1385 S Colorado Blvd., 5th Floor",Denver,Denver County,CO,80222,8031,19740,1,-104.941168,39.691571
126915,Technical College of the Rockies,1765 hwy 50,Delta,Delta County,CO,81416,8029,-2,-2,-108.031072,38.702524
126942,Community College of Denver,1111 W. Colfax Ave.,Denver,Denver County,CO,80204-2026,8031,19740,1,-105.001044,39.741413
126951,Lincoln College of Technology-Denver,11194 E 45th Ave,Denver,Denver County,CO,80239,8031,19740,1,-104.856171,39.77651
126979,Denver Seminary,6399 S. Santa Fe Drive,Littleton,Arapahoe County,CO,80120,8005,19740,1,-105.022363,39.600595
127060,University of Denver,2199 S. University Blvd,Denver,Denver County,CO,80208,8031,19740,1,-104.963259,39.678005
127158,Emily Griffith Technical College,1860 Lincoln Street,Denver,Denver County,CO,80203,8031,19740,1,-104.985751,39.74575
127185,Fort Lewis College,1000 Rim Drive,Durango,La Plata County,CO,81301-3999,8067,20420,2,-107.867422,37.275939
127200,Front Range Community College,3645 W 112th Ave,Westminster,Adams County,CO,80031,8001,19740,1,-105.038068,39.901452
127273,Iliff School of Theology,2323 E. Iliff Ave.,Denver,Denver County,CO,80210-4798,8031,19740,1,-104.960657,39.675927
127316,International Salon and Spa Academy,5707 N Academy Blvd,Colorado Springs,El Paso County,CO,80918-3684,8041,17820,1,-104.786252,38.913621
127389,Lamar Community College,2401 S Main St,Lamar,Prowers County,CO,81052-3999,8099,-2,-2,-102.616144,38.068886
127556,Colorado Mesa University,1100 North Avenue,Grand Junction,Mesa County,CO,81501-3122,8077,24300,1,-108.553275,39.080643
127565,Metropolitan State University of Denver,Speer Blvd and Colfax Ave,Denver,Denver County,CO,80217-3362,8031,19740,1,-105.00504,39.744202
127617,Morgan Community College,920 Barlow Road,Fort  Morgan,Morgan County,CO,80701,8087,22820,2,-103.771822,40.258792
127653,Naropa University,2130 Arapahoe Ave,Boulder,Boulder County,CO,80302-6697,8013,14500,1,-105.266987,40.014235
127714,Nazarene Bible College,1465 Kelly Johnson Blvd,Colorado Springs,El Paso County,CO,80920,8041,17820,1,-104.803251,38.944824
127732,Northeastern Junior College,100 College Avenue,Sterling,Logan County,CO,80751-2944,8075,44540,2,-103.197329,40.637215
127741,University of Northern Colorado,Carter Hall - Rm 4000,Greeley,Weld County,CO,80639,8123,24540,1,-104.692777,40.410855
127778,Otero Junior College,1802 Colorado Ave,La Junta,Otero County,CO,81050,8089,-2,-2,-103.544874,37.969984
127787,Altierus Career College-Thornton,9065 Grant St,Thornton,Adams County,CO,80229-4339,8001,19740,1,-104.985441,39.86156
127820,Pikes Peak Community College,5675 S Academy Blvd,Colorado Springs,El Paso County,CO,80906-5498,8041,17820,1,-104.787261,38.764287
127884,Pueblo Community College,900 W Orman Ave,Pueblo,Pueblo County,CO,81004-1499,8101,39380,1,-104.636258,38.262124
127909,Red Rocks Community College,13300 W Sixth Ave,Lakewood,Jefferson County,CO,80228-1255,8059,19740,1,-105.150094,39.720277
127918,Regis University,3333 Regis Blvd,Denver,Denver County,CO,80221-1099,8031,19740,1,-105.030756,39.788175
127945,Rocky Mountain College of Art and Design,1600 Pierce St,Lakewood,Jefferson County,CO,80214,8059,19740,1,-105.069911,39.74332
127954,Montessori Education Center of the Rockies,4745 Walnut Street,Boulder,Boulder County,CO,80301,8013,14500,1,-105.241331,40.019673
128106,Colorado State University-Pueblo,2200 Bonforte Blvd,Pueblo,Pueblo County,CO,81001-4901,8101,39380,1,-104.579033,38.30859
128151,Pickens Technical College,500 Airport Blvd,Aurora,Arapahoe County,CO,80011-9307,8005,19740,1,-104.789683,39.723705
128179,Intellitec College-Colorado Springs,2315 East Pikes Peak Avenue,Colorado Springs,El Paso County,CO,80909-6096,8041,17820,1,-104.78721,38.832183
128188,Intellitec College-Grand Junction,772 Horizon Dr.,Grand Junction,Mesa County,CO,81506,8077,24300,1,-108.53062,39.116346
128258,Trinidad State Junior College,600 Prospect Street,Trinidad,Las Animas County,CO,81082,8071,-2,-2,-104.513451,37.172059
128300,University of Colorado System Office,1800 Grant St,Denver,Denver County,CO,80203-1187,8031,19740,1,-104.983277,39.74521
128328,United States Air Force Academy,"2304 Cadet Drive, Suite 3800",USAF Academy,El Paso County,CO,80840-5002,8041,17820,1,-104.891358,39.010957
128337,Empire Beauty School-Thornton,3811 E 120th Ave,Thornton,Adams County,CO,80233,8001,19740,1,-104.94357,39.915253
128391,Western Colorado University,1 Western Way,Gunnison,Gunnison County,CO,81231,8051,-2,-2,-106.919132,38.549936
128498,Albertus Magnus College,700 Prospect St,New Haven,New Haven County,CT,06511-1189,9009,35300,1,-72.923848,41.332519
128577,Asnuntuck Community College,170 Elm St,Enfield,Hartford County,CT,6082,9003,25540,1,-72.570177,41.998409
128586,Bais Binyomin Academy,51 Carlton Road,Monsey,Rockland County,NY,10952,36087,35620,1,-74.078802,41.123013
128674,Branford Hall Career Institute-Branford Campus,One Summit Place,Branford,New Haven County,CT,6405,9009,35300,1,-72.848201,41.278557
128744,University of Bridgeport,126 Park Avenue,Bridgeport,Fairfield County,CT,06604-5620,9001,14860,1,-73.190166,41.164741
128771,Central Connecticut State University,1615 Stanley St,New Britain,Hartford County,CT,6050,9003,25540,1,-72.765991,41.692502
128780,Charter Oak State College,55 Paul Manafort Drive,New Britain,Hartford County,CT,6053,9003,25540,1,-72.767972,41.688246
128896,Cortiva Institute-Cromwell,"45 Shunpike Road, Suite 10",Cromwell,Middlesex County,CT,6416,9007,25540,1,-72.678562,41.604041
128902,Connecticut College,270 Mohegan Avenue,New London,New London County,CT,06320-4196,9011,35980,1,-72.107321,41.379833
129002,Porter and Chester Institute of Hamden,1245 Dixwell Avenue,Hamden,New Haven County,CT,6514,9009,35300,1,-72.931908,41.346568
129020,University of Connecticut,352 Mansfield Road,Storrs,Tolland County,CT,6269,9013,25540,1,-72.249948,41.809098
129154,Goodwin College,One Riverside Drive,East Hartford,Hartford County,CT,6118,9003,25540,1,-72.64032,41.742977
129181,Lincoln Technical Institute-East Windsor,97 Newberry Road,East Windsor,Hartford County,CT,6088,9003,25540,1,-72.596915,41.924248
129215,Eastern Connecticut State University,83 Windham St,Willimantic,Windham County,CT,6226,9015,49340,1,-72.218753,41.721673
129242,Fairfield University,1073 N Benson Rd,Fairfield,Fairfield County,CT,06824-5195,9001,14860,1,-73.255903,41.157673
129349,Paul Mitchell the School-North Haven,97 Washington Avenue,North Haven,New Haven County,CT,6473,9009,35300,1,-72.85745,41.394495
129367,Capital Community College,950 Main Street,Hartford,Hartford County,CT,6103,9003,25540,1,-72.672734,41.768397
129428,Rensselaer at Hartford,275 Windsor St,Hartford,Hartford County,CT,6120,9003,25540,1,-72.673916,41.773462
129482,American Institute-West Hartford,99 South Street,West Hartford,Hartford County,CT,06110-1922,9003,25540,1,-72.725762,41.727016
129491,Hartford Seminary,77 Sherman Street,Hartford,Hartford County,CT,06105-2260,9003,25540,1,-72.707766,41.769861
129525,University of Hartford,200 Bloomfield Ave,West Hartford,Hartford County,CT,06117-1599,9003,25540,1,-72.715213,41.798591
129534,Holy Apostles College and Seminary,33 Prospect Hill Road,Cromwell,Middlesex County,CT,06416-2005,9007,25540,1,-72.647853,41.60682
129543,Housatonic Community College,900 Lafayette Blvd,Bridgeport,Fairfield County,CT,06604-4704,9001,14860,1,-73.191003,41.175228
129695,Manchester Community College,Great Path,Manchester,Hartford County,CT,6040,9003,25540,1,-72.561939,41.761625
129729,Naugatuck Valley Community College,750 Chase Parkway,Waterbury,New Haven County,CT,06708-3089,9009,35300,1,-73.072963,41.549749
129756,Middlesex Community College,100 Training Hill Rd,Middletown,Middlesex County,CT,06457-4829,9007,25540,1,-72.611838,41.539516
129774,Mitchell College,437 Pequot Avenue,New London,New London County,CT,6320,9011,35980,1,-72.09523,41.328013
129808,Three Rivers Community College,574 New London Turnpike,Norwich,New London County,CT,6360,9011,35980,1,-72.103039,41.509945
129923,Lincoln Technical Institute-New Britain,200 John Downey Dr,New Britain,Hartford County,CT,6051,9003,25540,1,-72.754498,41.659236
129932,New England Tractor Trailer Training School of Connecticut,32 Field Rd,Somers,Tolland County,CT,6071,9013,25540,1,-72.450218,41.979699
129941,University of New Haven,300 Boston Post Road,West Haven,New Haven County,CT,06516-1916,9009,35300,1,-72.961472,41.291314
130004,Norwalk Community College,188 Richards Avenue,Norwalk,Fairfield County,CT,6854,9001,14860,1,-73.450965,41.102574
130040,Northwestern Connecticut Community College,Park Pl E,Winsted,Litchfield County,CT,6098,9005,45860,2,-73.058734,41.920668
130110,Paier College of Art Inc,20 Gorham Ave,Hamden,New Haven County,CT,06514-3902,9009,35300,1,-72.935048,41.347714
130174,Porter and Chester Institute of Stratford,670 Lordship Blvd,Stratford,Fairfield County,CT,06615-7158,9001,14860,1,-73.149023,41.169646
130183,Post University,800 Country Club Rd,Waterbury,New Haven County,CT,6723,9009,35300,1,-73.081497,41.535549
130217,Quinebaug Valley Community College,742 Upper Maple St,Danielson,Windham County,CT,06239-1436,9015,49340,1,-71.889673,41.82623
130226,Quinnipiac University,Mt Carmel Ave,Hamden,New Haven County,CT,6518,9009,35300,1,-72.894117,41.418915
130253,Sacred Heart University,5151 Park Ave,Fairfield,Fairfield County,CT,06825-1000,9001,14860,1,-73.243332,41.220893
130314,University of Saint Joseph,1678 Asylum Avenue,West Hartford,Hartford County,CT,6117,9003,25540,1,-72.72965,41.781041
130396,Gateway Community College,20 Church Street,New Haven,New Haven County,CT,6510,9009,35300,1,-72.927682,41.303785
130493,Southern Connecticut State University,501 Crescent Street,New Haven,New Haven County,CT,06515-1355,9009,35300,1,-72.947897,41.333225
130509,Stone Academy-West Haven,560 Saw Mill Road,West Haven,New Haven County,CT,6516,9009,35300,1,-72.976966,41.267503
130590,Trinity College,300 Summit St,Hartford,Hartford County,CT,06106-3100,9003,25540,1,-72.690882,41.747451
130606,Tunxis Community College,271 Scott Swamp Road,Farmington,Hartford County,CT,06032-3187,9003,25540,1,-72.87754,41.705498
130624,United States Coast Guard Academy,15 Mohegan Avenue,New London,New London County,CT,06320-4195,9011,35980,1,-72.101583,41.375823
130697,Wesleyan University,45 Wyllys Avenue,Middletown,Middlesex County,CT,6459,9007,25540,1,-72.657146,41.554665
130776,Western Connecticut State University,181 White Street,Danbury,Fairfield County,CT,06810-6826,9001,14860,1,-73.444264,41.400365
130794,Yale University,Woodbridge Hall,New Haven,New Haven County,CT,6520,9009,35300,1,-72.926688,41.311158
130837,Margaret H Rollins School of Nursing at Beebe Medical Center,424 Savannah Rd,Lewes,Sussex County,DE,19958,10005,41540,1,-75.142864,38.771565
130873,Dawn Career Institute LLC,"252 Chapman Road, Suite 100",Newark,New Castle County,DE,19702,10003,37980,1,-75.677768,39.668605
130882,Delaware Technical Community College-Central Office,1832 North Dupont Highway,Dover,Kent County,DE,19901,10001,20100,1,-75.5582,39.20109
130907,Delaware Technical Community College-Terry,100 Campus Drive,Dover,Kent County,DE,19901,10001,20100,1,-75.56012,39.198371
130934,Delaware State University,1200 N. Dupont Highway,Dover,Kent County,DE,19901,10001,20100,1,-75.54053,39.187173
130943,University of Delaware,104 Hullihen Hall,Newark,New Castle County,DE,19716,10003,37980,1,-75.752822,39.679577
130989,Goldey-Beacom College,4701 Limestone Rd,Wilmington,New Castle County,DE,19808,10003,37980,1,-75.689624,39.741501
131061,Schilling-Douglas School of Hair Design LLC,211 Louviers Drive,Newark,New Castle County,DE,19711,10003,37980,1,-75.74178,39.711442
131098,Wesley College,120 N State St,Dover,Kent County,DE,19901-3875,10001,20100,1,-75.527716,39.163182
131113,Wilmington University,320 Dupont Hwy,New Castle,New Castle County,DE,19720,10003,37980,1,-75.586998,39.682299
131159,American University,4400 Massachusetts Ave NW,Washington,District of Columbia,DC,20016-8001,11001,47900,1,-77.088875,38.936005
131283,The Catholic University of America,"620 Michigan Avenue, NE",Washington,District of Columbia,DC,20064,11001,47900,1,-76.997909,38.933651
131399,University of the District of Columbia,4200 Connecticut Ave NW,Washington,District of Columbia,DC,20008,11001,47900,1,-77.066247,38.943819
131405,Pontifical Faculty of the Immaculate Conception at the Dominican House of Studies,"487 Michigan Ave, NE",Washington,District of Columbia,DC,20017-1585,11001,47900,1,-76.998724,38.931652
131450,Gallaudet University,"800 Florida Ave, NE",Washington,District of Columbia,DC,20002-3695,11001,47900,1,-76.993675,38.907371
131469,George Washington University,"1918 F Street, NW",Washington,District of Columbia,DC,20052,11001,47900,1,-77.048363,38.89923
131496,Georgetown University,37th and O St NW,Washington,District of Columbia,DC,20057-0001,11001,47900,1,-77.073463,38.908809
131520,Howard University,2400 Sixth St NW,Washington,District of Columbia,DC,20059-0001,11001,47900,1,-77.018966,38.922392
131803,Strayer University-District of Columbia,1133 15th St NW,Washington,District of Columbia,DC,20005,11001,47900,1,-77.034133,38.904881
131830,National Conservatory of Dramatic Arts,1556 Wisconsin Ave NW,Washington,District of Columbia,DC,20007,11001,47900,1,-77.065095,38.910024
131876,Trinity Washington University,125 Michigan Ave NE,Washington,District of Columbia,DC,20017-1094,11001,47900,1,-77.004261,38.927398
131973,Wesley Theological Seminary,"4500 Massachusetts Ave., NW",Washington,District of Columbia,DC,20016-5690,11001,47900,1,-77.08996,38.939606
132374,Atlantic Technical College,4700 Coconut Creek Parkway,Coconut Creek,Broward County,FL,33063-3902,12011,33100,1,-80.192271,26.24278
132408,The Baptist College of Florida,5400 College Dr,Graceville,Jackson County,FL,32440,12063,-2,-2,-85.503931,30.962708
132471,Barry University,11300 NE 2nd Ave,Miami,Miami-Dade County,FL,33161-6695,12086,33100,1,-80.198925,25.878908
132602,Bethune-Cookman University,640 Dr Mary McLeod Bethune Blvd,Daytona Beach,Volusia County,FL,32114-3099,12127,19660,1,-81.032946,29.207195
132657,Lynn University,3601 N. Military Trail,Boca Raton,Palm Beach County,FL,33431-5598,12099,33100,1,-80.122806,26.385985
132675,North Florida Technical College,609 N Orange St,Starke,Bradford County,FL,32091,12007,-2,-2,-82.117224,29.952308
132693,Eastern Florida State College,1519 Clearlake Rd,Cocoa,Brevard County,FL,32922,12009,37340,1,-80.756474,28.38361
132709,Broward College,111 East Las Olas Blvd,Fort Lauderdale,Broward County,FL,33301,12011,33100,1,-80.14183,26.119422
132842,Carlos Albizu University-Miami,2173 N.W. 99th Avenue,Miami,Miami-Dade County,FL,33172-2209,12086,33100,1,-80.356315,25.794178
132851,College of Central Florida,3001 SW College Rd,Ocala,Marion County,FL,34474,12083,36100,1,-82.175692,29.166079
132879,Johnson University Florida,1011 Bill Beck Blvd,Kissimmee,Osceola County,FL,34744,12097,36740,1,-81.363053,28.302547
132903,University of Central Florida,4000 Central Florida Blvd,Orlando,Orange County,FL,32816,12095,36740,1,-81.200889,28.602159
132976,Charlotte Technical College,18150 Murdock Circle,Port Charlotte,Charlotte County,FL,33948-3399,12015,39460,1,-82.147238,27.005558
133021,Chipola College,3094 Indian Circle,Marianna,Jackson County,FL,32446-2053,12063,-2,-2,-85.23139,30.789228
133155,Lorenzo Walker Technical College,3702 Estey Avenue,Naples,Collier County,FL,34104-4405,12021,34940,1,-81.763568,26.141141
133386,Daytona State College,1200 W. International Speedway Blvd.,Daytona Beach,Volusia County,FL,32114,12127,19660,1,-81.049685,29.203275
133465,South University-West Palm Beach,9801 Belvedere Road,Royal Palm Beach,Palm Beach County,FL,33411,12099,33100,1,-80.200219,26.69215
133492,Eckerd College,4200 54th Ave S,Saint Petersburg,Pinellas County,FL,33711-4700,12103,45300,1,-82.687043,27.715798
133508,Florida SouthWestern State College,8099 College Parkway,Fort Myers,Lee County,FL,33919,12071,15980,1,-81.887102,26.552403
133526,Edward Waters College,1658 Kings Rd,Jacksonville,Duval County,FL,32209,12031,27260,1,-81.684879,30.34479
133553,Embry-Riddle Aeronautical University-Daytona Beach,1 Aerospace Blvd.,Daytona Beach,Volusia County,FL,32114-3900,12127,19660,1,-81.048367,29.189903
133650,Florida Agricultural and Mechanical University,1500 S Martin Luther King Jr Blvd,Tallahassee,Leon County,FL,32307,12073,45220,1,-84.290226,30.428504
133669,Florida Atlantic University,"777 Glades Rd, Administration Bldg., Room 339",Boca Raton,Palm Beach County,FL,33431-0991,12099,33100,1,-80.102978,26.372421
133702,Florida State College at Jacksonville,501 W State St,Jacksonville,Duval County,FL,32202,12031,27260,1,-81.659901,30.334918
133711,Flagler College-St Augustine,74 King Street,Saint Augustine,St. Johns County,FL,32084,12109,27260,1,-81.314887,29.892733
133809,Florida College,119 N Glen Arven Ave,Temple Terrace,Hillsborough County,FL,33617,12057,45300,1,-82.383289,28.034936
133845,Concorde Career Institute-Jacksonville,7259 Salisbury Road,Jacksonville,Duval County,FL,32256-6905,12031,27260,1,-81.581748,30.23886
133854,Concorde Career Institute-Miramar,10933 Marks Way,Miramar,Broward County,FL,33025,12011,33100,1,-80.291516,25.977088
133863,Concorde Career Institute-Tampa,4202 W Spruce,Tampa,Hillsborough County,FL,33607-4127,12057,45300,1,-82.514341,27.959148
133872,AdventHealth University,671 Winyah Drive,Orlando,Orange County,FL,32803,12095,36740,1,-81.367687,28.576142
133881,Florida Institute of Technology,150 West University Boulevard,Melbourne,Brevard County,FL,32901-6975,12009,37340,1,-80.622893,28.065815
133942,Florida Institute of Ultrasound Inc,8800 University Pky Ste A4,Pensacola,Escambia County,FL,32514,12033,37860,1,-87.220895,30.524582
133951,Florida International University,11200 S. W. 8 Street,Miami,Miami-Dade County,FL,33199,12086,33100,1,-80.373928,25.75732
133960,The College of the Florida Keys,5901 College Rd,Key West,Monroe County,FL,33040,12087,28580,2,-81.74446,24.582748
133979,Florida Memorial University,15800 NW 42 Avenue,Miami Gardens,Miami-Dade County,FL,33054-6199,12086,33100,1,-80.270753,25.918278
133997,Florida Career College-Miami,"1321 SW 107 Avenue, Suite 201B",Miami,Miami-Dade County,FL,33174,12086,33100,1,-80.36778,25.756567
134024,Florida School of Massage,6421 SW 13th St,Gainesville,Alachua County,FL,32608-5419,12001,23540,1,-82.338273,29.593428
134079,Florida Southern College,111 Lake Hollingsworth Dr,Lakeland,Polk County,FL,33801-5698,12105,29460,1,-81.948203,28.032443
134097,Florida State University,222 S. Copeland Street,Tallahassee,Leon County,FL,32306-1037,12073,45220,1,-84.291921,30.440756
134112,Florida Technical College,12900 Challenger Parkway,Orlando,Orange County,FL,32826,12095,36740,1,-81.196503,28.573275
134130,University of Florida,Tigert Hall,Gainesville,Alachua County,FL,32611,12001,23540,1,-82.347911,29.64629
134228,Fort Pierce Beauty Academy,3028 S US 1,Fort Pierce,St. Lucie County,FL,34982-6333,12111,38940,1,-80.325377,27.411962
134237,Full Sail University,3300 University Blvd,Winter Park,Orange County,FL,32792-7429,12095,36740,1,-81.301286,28.596546
134291,George Stone Technical College,2400 Longleaf Dr,Pensacola,Escambia County,FL,32526-8922,12033,37860,1,-87.290659,30.487547
134307,George T Baker Aviation Technical College,3275 NW 42nd Ave,Miami,Miami-Dade County,FL,33142,12086,33100,1,-80.263591,25.804092
134343,Gulf Coast State College,5230 West U.S. Highway 98,Panama City,Bay County,FL,32401,12005,37460,1,-85.727918,30.185542
134495,Hillsborough Community College,39 Columbia Drive,Tampa,Hillsborough County,FL,33606-3584,12057,45300,1,-82.456253,27.934888
134510,Hobe Sound Bible College,11298 SE Gomez Ave,Hobe Sound,Martin County,FL,33455-1065,12085,38940,1,-80.13184,27.066304
134529,Hollywood Institute of Beauty Careers,420 S. State Rd. 7,Hollywood,Broward County,FL,33023,12011,33100,1,-80.209125,26.007139
134574,Cortiva Institute-Florida,2370 34th Street North,St. Petersburg,Pinellas County,FL,33713,12103,45300,1,-82.680031,27.793547
134608,Indian River State College,3209 Virginia Ave,Fort Pierce,St. Lucie County,FL,34981-5596,12111,38940,1,-80.358682,27.42416
134714,International Academy,2550 S Ridgewood Ave,South Daytona,Volusia County,FL,32119,12127,19660,1,-80.997811,29.162159
134811,AI Miami International University of Art and Design,"1501 Biscayne Boulevard, Suite 100",Miami,Miami-Dade County,FL,33132-1418,12086,33100,1,-80.18839,25.790008
134945,Jacksonville University,2800 University Blvd N,Jacksonville,Duval County,FL,32211-3394,12031,27260,1,-81.60458,30.353227
135081,Keiser University-Ft Lauderdale,1500 NW 49th St.,Fort Lauderdale,Broward County,FL,33309,12011,33100,1,-80.163959,26.185869
135142,La Belle Beauty School,1495 West 49 Street,Hialeah,Miami-Dade County,FL,33012,12086,33100,1,-80.312711,25.86695
135160,Florida Gateway College,Highway 90 East,Lake City,Columbia County,FL,32025-2007,12023,29380,2,-82.5679,30.175298
135179,Lake Technical College,2001 Kurt Street,Eustis,Lake County,FL,32726,12069,36740,1,-81.690874,28.833446
135188,Lake-Sumter State College,9501 US Hwy 441,Leesburg,Lake County,FL,34788-8751,12069,36740,1,-81.797193,28.828649
135267,Fort Myers Technical College,3800 Michigan Ave,Fort Myers,Lee County,FL,33916-2204,12071,15980,1,-81.836596,26.647517
135276,Lively Technical College,500 N Appleyard Dr,Tallahassee,Leon County,FL,32304-2895,12073,45220,1,-84.339057,30.448534
135294,Lindsey Hopkins Technical College,750 NW 20 Street,Miami,Miami-Dade County,FL,33127,12086,33100,1,-80.208154,25.794676
135337,Loraines Academy & Spa,1012 58th St N,Saint Petersburg,Pinellas County,FL,33710,12103,45300,1,-82.713964,27.783077
135364,Luther Rice College & Seminary,3038 Evans Mill Road,Lithonia,DeKalb County,GA,30038-9869,13089,12060,1,-84.123179,33.698126
135391,State College of Florida-Manatee-Sarasota,5840 26th St W,Bradenton,Manatee County,FL,34207,12081,35840,1,-82.590887,27.43804
135407,Manatee Technical College,6305 State Rd 70 East,Bradenton,Manatee County,FL,34203,12081,35840,1,-82.481088,27.447894
135522,Traviss Technical College,3225 Winter Lake Rd,Lakeland,Polk County,FL,33803,12105,29460,1,-81.892381,27.995822
135559,Merryfield School of Pet Grooming,5040 Northeast 13 Avenue,Oakland Park,Broward County,FL,33334-4925,12011,33100,1,-80.129991,26.19044
135610,Trinity International University-Florida,"9010 SW 137th Ave,m Suite #101",Miami,Miami-Dade County,FL,33186,12086,33100,1,-80.417646,25.68307
135647,Miami Lakes Educational Center and Technical College,5780 NW 158th Street,Miami Lakes,Miami-Dade County,FL,33014,12086,33100,1,-80.29513,25.916128
135717,Miami Dade College,300 NE 2nd Avenue,Miami,Miami-Dade County,FL,33132-2204,12086,33100,1,-80.190856,25.777717
135726,University of Miami,University of Miami,Coral Gables,Miami-Dade County,FL,33146,12086,33100,1,-80.278662,25.72126
135735,Orange Technical College-Mid Florida Campus,2900 West Oak Ridge Road,Orlando,Orange County,FL,32809,12095,36740,1,-81.415996,28.471695
135771,Beauty Schools of America-Miami,1176 SW 67th Avenue,Miami,Miami-Dade County,FL,33144,12086,33100,1,-80.304459,25.759918
136109,Paul Mitchell the School-Jacksonville,"4624 Town Crossing Drive, Suite 155",Jacksonville,Duval County,FL,32246,12031,27260,1,-81.527515,30.259433
136145,North Florida College,325 NW Turner Davis Dr,Madison,Madison County,FL,32340,12079,-2,-2,-83.420732,30.473841
136172,University of North Florida,1 UNF Drive,Jacksonville,Duval County,FL,32224-7699,12031,27260,1,-81.509144,30.27194
136215,Nova Southeastern University,3301 College Ave,Fort Lauderdale,Broward County,FL,33314-7796,12011,33100,1,-80.24248,26.079337
136233,Northwest Florida State College,100 College Boulevard,Niceville,Okaloosa County,FL,32578-1295,12091,18880,1,-86.47456,30.540017
136303,Orange Technical College-Orlando Campus,301 W Amelia Street,Orlando,Orange County,FL,32801-1197,12095,36740,1,-81.383783,28.550422
136330,Palm Beach Atlantic University,901 S. Flagler Drive,West Palm Beach,Palm Beach County,FL,33401,12099,33100,1,-80.05247,26.7044
136358,Palm Beach State College,4200 Congress Ave,Lake Worth,Palm Beach County,FL,33461-4796,12099,33100,1,-80.08653,26.61256
136400,Pasco-Hernando State College,10230 Ridge Road,New Port Richey,Pasco County,FL,34654-5199,12101,45300,1,-82.646727,28.2751
136473,Pensacola State College,1000 College Blvd,Pensacola,Escambia County,FL,32504-8998,12033,37860,1,-87.200265,30.479267
136491,Pinellas Technical College-Clearwater,6100 154th Avenue North,Clearwater,Pinellas County,FL,33760-2140,12103,45300,1,-82.719064,27.911922
136516,Polk State College,999 Avenue H NE,Winter Haven,Polk County,FL,33881-4299,12105,29460,1,-81.711873,28.032411
136659,Radford M Locklin Technical College,5330 Berryhill Rd,Milton,Santa Rosa County,FL,32570-8188,12113,37860,1,-87.09971,30.648077
136701,Saint Vincent de Paul Regional Seminary,10701 South Military Trail,Boynton Beach,Palm Beach County,FL,33436-4899,12099,33100,1,-80.125185,26.516538
136765,Ridge Technical College,7700 State Rd 544,Winter Haven,Polk County,FL,33881-9518,12105,29460,1,-81.654463,28.076632
136774,Ringling College of Art and Design,2700 North Tamiami Trail,Sarasota,Sarasota County,FL,34234-5895,12115,35840,1,-82.547803,27.360931
136826,Robert Morgan Educational Center and Technical College,18180 SW 122nd Ave,Miami,Miami-Dade County,FL,33177-2407,12086,33100,1,-80.390054,25.599247
136950,Rollins College,1000 Holt Avenue,Winter Park,Orange County,FL,32789-4499,12095,36740,1,-81.349239,28.592787
137023,First Coast Technical College,2980 Collins Ave,Saint Augustine,St. Johns County,FL,32084-1919,12109,27260,1,-81.345829,29.924377
137032,Saint Leo University,33701 State Road 52,Saint Leo,Pasco County,FL,33574-6665,12101,45300,1,-82.257801,28.336776
137078,St Petersburg College,6021 142nd  Ave N,Clearwater,Pinellas County,FL,33760-2822,12103,45300,1,-82.717331,27.90242
137087,Pinellas Technical College-St. Petersburg,901 34th St S,Saint Petersburg,Pinellas County,FL,33711-2209,12103,45300,1,-82.681534,27.761183
137096,Santa Fe College,3000 Northwest 83rd Street,Gainesville,Alachua County,FL,32606-6210,12001,23540,1,-82.433143,29.681037
137120,Suncoast Technical College,4748 Beneva Rd,Sarasota,Sarasota County,FL,34233-1798,12115,35840,1,-82.500827,27.285486
137209,Seminole State College of Florida,100 Weldon Blvd,Sanford,Seminole County,FL,32773-6199,12117,36740,1,-81.308003,28.745482
137245,Sheridan Technical College,5400 Sheridan St,Hollywood,Broward County,FL,33021,12011,33100,1,-80.198024,26.031736
137272,St. John Vianney College Seminary,2900 SW 87th Ave,Miami,Miami-Dade County,FL,33165-3244,12086,33100,1,-80.337411,25.742579
137281,Saint Johns River State College,5001 Saint Johns Ave,Palatka,Putnam County,FL,32177,12107,37260,2,-81.681387,29.647516
137315,South Florida State College,600 W College Dr,Avon Park,Highlands County,FL,33825-9356,12055,42700,1,-81.508667,27.56974
137351,University of South Florida-Main Campus,4202 East Fowler Ave,Tampa,Hillsborough County,FL,33620-9951,12057,45300,1,-82.413232,28.061458
137476,St. Thomas University,16401 NW 37th Ave,Miami Gardens,Miami-Dade County,FL,33054-6459,12086,33100,1,-80.253273,25.922071
137546,Stetson University,421 N Woodland Blvd,DeLand,Volusia County,FL,32723,12127,19660,1,-81.300746,29.035475
137564,Southeastern University,1000 Longfellow Blvd,Lakeland,Polk County,FL,33801-6034,12105,29460,1,-81.918382,28.029733
137591,Bene's Career Academy,7027 US Hwy 19,New Port Richey,Pasco County,FL,34652,12101,45300,1,-82.728584,28.259612
137713,Riveroak Technical College,415 SW Pinewood Dr,Live Oak,Suwannee County,FL,32064,12121,-2,-2,-82.992512,30.281999
137759,Tallahassee Community College,444 Appleyard Dr,Tallahassee,Leon County,FL,32304-2895,12073,45220,1,-84.339,30.443866
137777,Talmudic College of Florida,4000 Alton Rd,Miami Beach,Miami-Dade County,FL,33140-3854,12086,33100,1,-80.136293,25.811996
137801,Altierus Career College-Tampa,3319 W Hillsborough Ave,Tampa,Hillsborough County,FL,33614-5801,12057,45300,1,-82.497616,27.996582
137847,The University of Tampa,401 W Kennedy Blvd,Tampa,Hillsborough County,FL,33606-1490,12057,45300,1,-82.46483,27.948455
